"상가업소번호","상호명","지점명","상권업종대분류코드","상권업종대분류명","상권업종중분류코드","상권업종중분류명","상권업종소분류코드","상권업종소분류명","표준산업분류코드","표준산업분류명","시도코드","시도명","시군구코드","시군구명","행정동코드","행정동명","법정동코드","법정동명","지번코드","대지구분코드","대지구분명","지번본번지","지번부번지","지번주소","도로명코드","도로명","건물본번지","건물부번지","건물관리번호","건물명","도로명주소","구우편번호","신우편번호","동정보","층정보","호정보","경도","위도"
20655887,"홍이네","","Q","음식","Q01","한식","Q01A07","부대찌개/섞어찌개","I56111","한식 음식점업",46,"전라남도",46790,"화순군",4679025000,"화순읍",4679025031,"화순읍",4679025031206210000,1,"대지",621,NA,"전라남도 화순군 화순읍 삼천리 621",467904673266,"전라남도 화순군 화순읍 시장길",42,NA,"4679025031106210000042181","화순전통시장","전라남도 화순군 화순읍 시장길 42",519807,58122,"","1",NA,126.983427174941,35.0590871991344
28493823,"대화모텔","","O","숙박","O02","모텔/여관/여인숙","O02A01","모텔/여관/여인숙","I55112","여관업",46,"전라남도",46790,"화순군",4679025000,"화순읍",4679025021,"화순읍",4679025021202110016,1,"대지",211,16,"전라남도 화순군 화순읍 교리 211-16",467903291015,"전라남도 화순군 화순읍 쌍충로",112,NA,"4679025021102110016041660","대화모텔","전라남도 화순군 화순읍 쌍충로 112",519804,58120,"","1",NA,126.980938871472,35.0617164667601
24280281,"가온감정평가법인광주전남","","L","부동산","L04","평가/개발/관리","L04A04","부동산감정평가","L68222","부동산 감정평가업",46,"전라남도",46790,"화순군",4679025000,"화순읍",4679025025,"화순읍",4679025025200380001,1,"대지",38,1,"전라남도 화순군 화순읍 훈리 38-1",467903291032,"전라남도 화순군 화순읍 진각로",144,NA,"4679025025100380001000001","이지오피스텔","전라남도 화순군 화순읍 진각로 144",519805,58113,"","2",NA,126.987283004319,35.0637707306726
20647365,"풍성떡방앗간","","Q","음식","Q08","제과제빵떡케익","Q08A03","떡전문","I56191","제과점업",46,"전라남도",46790,"화순군",4679025000,"화순읍",4679025031,"화순읍",4679025031206590000,1,"대지",659,NA,"전라남도 화순군 화순읍 삼천리 659",467903291036,"전라남도 화순군 화순읍 칠충로",86,NA,"4679025031106600001041585","","전라남도 화순군 화순읍 칠충로 86",519807,58137,"","",NA,126.980227804039,35.0571854109452
9335489,"그린마트","","D","소매","D03","종합소매점","D03A02","수퍼마켓","G47121","슈퍼마켓",46,"전라남도",46790,"화순군",4679025000,"화순읍",4679025023,"화순읍",4679025023202430000,1,"대지",243,NA,"전라남도 화순군 화순읍 만연리 243",467903291004,"전라남도 화순군 화순읍 광덕로",180,NA,"4679025023102430000045157","화순부영아파트","전라남도 화순군 화순읍 광덕로 180",519754,58116,"","1",NA,126.993030924407,35.0608349136715
24100663,"동원스튜디오","","D","소매","D18","사진/광학/정밀기기소매","D18A03","카메라판매","G47823","사진기 및 사진용품 소매업",46,"전라남도",46790,"화순군",4679025000,"화순읍",4679025023,"화순읍",4679025023202210000,1,"대지",221,NA,"전라남도 화순군 화순읍 만연리 221",467903291050,"전라남도 화순군 화순읍 중앙로",94,NA,"4679025023102210000044951","동원빌딩","전라남도 화순군 화순읍 중앙로 94",519806,58125,"","",NA,126.991656612232,35.0602646221556
22556451,"화순애견샵&카페","","Q","음식","Q12","커피점/카페","Q12A01","커피전문점/카페/다방","I56220","비알콜 음료점업",46,"전라남도",46790,"화순군",4679025000,"화순읍",4679025024,"화순읍",4679025024201730000,1,"대지",173,NA,"전라남도 화순군 화순읍 신기리 173",467903291012,"전라남도 화순군 화순읍 서양로",430,NA,"4679025024101730000000001","","전라남도 화순군 화순읍 서양로 430",519950,58105,"","2",NA,126.994293110468,35.0678673764777
24118759,"대림의학","","D","소매","D13","책/서적/도서","D13A03","서적/신문소매","G47611","서적 및 잡지류 소매업",46,"전라남도",46790,"화순군",4679025000,"화순읍",4679025033,"화순읍",4679025033201210000,1,"대지",121,NA,"전라남도 화순군 화순읍 대리 121",467903291036,"전라남도 화순군 화순읍 칠충로",44,NA,"4679025033101210000041306","대광아파트2차","전라남도 화순군 화순읍 칠충로 44",519767,58137,"201","",NA,126.977502763083,35.0541788028239
20161210,"프로민물","","Q","음식","Q01","한식","Q01A01","한식/백반/한정식","I56111","한식 음식점업",46,"전라남도",46790,"화순군",4679025000,"화순읍",4679025028,"화순읍",4679025028208430000,1,"대지",843,NA,"전라남도 화순군 화순읍 일심리 843",467903291053,"전라남도 화순군 화순읍 화동로",5,NA,"4679025028108430000045183","","전라남도 화순군 화순읍 화동로 5",519809,58126,"","",NA,126.993493354038,35.0553130972569
15545824,"농부의땀","","D","소매","D01","음/식료품소매","D01A13","청과물소매","G47214","과실 및 채소 소매업",46,"전라남도",46790,"화순군",4679033000,"청풍면",4679033031,"청풍면",4679033031200890016,1,"대지",89,16,"전라남도 화순군 청풍면 차리 89-16",467903017032,"전라남도 화순군 청풍면 곰치로",2006,1,"4679033031100890016000001","","전라남도 화순군 청풍면 곰치로 2006-1",519871,58162,"","",NA,126.976824017654,34.8753035686146
23985857,"대화종합장식","","D","소매","D07","가정/주방/인테리어","D07A14","지물판매","G47513","벽지 및 장판류 소매업",46,"전라남도",46790,"화순군",4679025000,"화순읍",4679025030,"화순읍",4679025030202820000,1,"대지",282,NA,"전라남도 화순군 화순읍 광덕리 282",467903291008,"전라남도 화순군 화순읍 만연로",36,NA,"4679025030102820000044780","","전라남도 화순군 화순읍 만연로 36",519803,58125,"","1",NA,126.99038022039,35.0588658317966
24165659,"SOCCUS","","D","소매","D03","종합소매점","D03A01","편의점","G47122","체인화 편의점",46,"전라남도",46790,"화순군",4679025000,"화순읍",4679025031,"화순읍",4679025031207240004,1,"대지",724,4,"전라남도 화순군 화순읍 삼천리 724-4",467904673266,"전라남도 화순군 화순읍 시장길",21,NA,"4679025031107240004042133","","전라남도 화순군 화순읍 시장길 21",519807,58122,"","",NA,126.983249868688,35.0574721877754
20491122,"미성식당","","Q","음식","Q01","한식","Q01A01","한식/백반/한정식","I56111","한식 음식점업",46,"전라남도",46790,"화순군",4679035000,"능주면",4679035023,"능주면",4679035023202340007,1,"대지",234,7,"전라남도 화순군 능주면 석고리 234-7",467904673426,"전라남도 화순군 능주면 죽수길",81,NA,"4679035023102340007025440","","전라남도 화순군 능주면 죽수길 81",519811,58153,"","1",NA,126.958491469291,34.990494454132
24223129,"이지렌트카","화순지점","F","생활서비스","F07","물품기기대여","F07A11","렌트카","L69110","자동차 임대업",46,"전라남도",46790,"화순군",4679031000,"한천면",4679031025,"한천면",4679031025201870000,1,"대지",187,NA,"전라남도 화순군 한천면 가암리 187",467903291043,"전라남도 화순군 한천면 덕음로",291,5,"4679031025101870000000001","","전라남도 화순군 한천면 덕음로 291-5",519821,58142,"","",NA,126.992105128677,34.9996391261997
24369765,"화순피닉스GYM","","R","학문/교육","R05","학원-음악미술무용","R05A02","피아노/바이올린/기타","P85620","예술 학원",46,"전라남도",46790,"화순군",4679025000,"화순읍",4679025023,"화순읍",4679025023202390001,1,"대지",239,1,"전라남도 화순군 화순읍 만연리 239-1",467903291008,"전라남도 화순군 화순읍 만연로",64,NA,"4679025023102390001044760","낙원빌딩","전라남도 화순군 화순읍 만연로 64",519806,58117,"","3",NA,126.990448029649,35.0613723193441
21370209,"특공무술체육관","","R","학문/교육","R07","학원-예능취미체육","R07A21","합기도장","P85611","스포츠 교육기관",46,"전라남도",46790,"화순군",4679025000,"화순읍",4679025023,"화순읍",4679025023202270000,1,"대지",227,NA,"전라남도 화순군 화순읍 만연리 227",467903291004,"전라남도 화순군 화순읍 광덕로",169,2,"4679025023102270000044956","","전라남도 화순군 화순읍 광덕로 169-2",519806,58125,"","2",NA,126.991856138671,35.0600859983247
21370212,"시온놀이방","","R","학문/교육","R08","유아교육","R08A01","놀이방","Q87210","보육시설 운영업",46,"전라남도",46790,"화순군",4679025000,"화순읍",4679025023,"화순읍",4679025023202430000,1,"대지",243,NA,"전라남도 화순군 화순읍 만연리 243",467903291004,"전라남도 화순군 화순읍 광덕로",180,NA,"4679025023102430000045157","화순부영아파트","전라남도 화순군 화순읍 광덕로 180",519754,58116,"","1",NA,126.993030924407,35.0608349136715
24156562,"옥경식품","","D","소매","D01","음/식료품소매","D01A01","식료품점","G47219","기타 식료품 소매업",46,"전라남도",46790,"화순군",4679035000,"능주면",4679035023,"능주면",4679035023202550003,1,"대지",255,3,"전라남도 화순군 능주면 석고리 255-3",467904673426,"전라남도 화순군 능주면 죽수길",67,NA,"4679035023102550003025411","","전라남도 화순군 능주면 죽수길 67",519811,58153,"","",NA,126.958342257457,34.989303301875
24291269,"대원자동차부분정비","","F","생활서비스","F14","자동차/이륜차","F14A01","자동차정비/카센타","","",46,"전라남도",46790,"화순군",4679025000,"화순읍",4679025030,"화순읍",4679025030202170006,1,"대지",217,6,"전라남도 화순군 화순읍 광덕리 217-6",467903291052,"전라남도 화순군 화순읍 충의로",151,1,"4679025030102170006045254","","전라남도 화순군 화순읍 충의로 151-1",519803,58134,"","",NA,126.993677023904,35.0546385618296
21395910,"프로포즈","","D","소매","D06","가방/신발/액세서리","D06A01","신발소매","G47420","신발 소매업",46,"전라남도",46790,"화순군",4679025000,"화순읍",4679025028,"화순읍",4679025028206740000,1,"대지",674,NA,"전라남도 화순군 화순읍 일심리 674",467903291004,"전라남도 화순군 화순읍 광덕로",144,NA,"4679025028106740000045049","","전라남도 화순군 화순읍 광덕로 144",519809,58126,"","1",NA,126.992622012218,35.05753235212
20536522,"은혜반찬","","D","소매","D01","음/식료품소매","D01A07","반찬가게","G47219","기타 식료품 소매업",46,"전라남도",46790,"화순군",4679025000,"화순읍",4679025023,"화순읍",4679025023202300000,1,"대지",230,NA,"전라남도 화순군 화순읍 만연리 230",467903291004,"전라남도 화순군 화순읍 광덕로",165,NA,"4679025023102300000044987","화순유창허니문맨션2차","전라남도 화순군 화순읍 광덕로 165",519806,58125,"","1",NA,126.991771769503,35.0598148736904
21393235,"지에스칼텍스한전주유소","","F","생활서비스","F16","주유소/충전소","F16A01","주유소","G47711","차량용 주유소 운영업",46,"전라남도",46790,"화순군",4679025000,"화순읍",4679025022,"화순읍",4679025022200030002,1,"대지",3,2,"전라남도 화순군 화순읍 향청리 3-2",467903291050,"전라남도 화순군 화순읍 중앙로",78,NA,"4679025022100030002044704","","전라남도 화순군 화순읍 중앙로 78",519808,58124,"","1",NA,126.989671880381,35.0603021921191
21391992,"대성낚시","","D","소매","D14","운동/경기용품소매","D14A05","낚시용품판매","G47631","운동 및 경기용품 소매업",46,"전라남도",46790,"화순군",4679034000,"이양면",4679034028,"이양면",4679034028106640002,1,"대지",664,2,"전라남도 화순군 이양면 오류리 664-2",467903291024,"전라남도 화순군 이양면 이양로",118,NA,"4679034028106640002020543","","전라남도 화순군 이양면 이양로 118",519863,58165,"","1",NA,126.989493262695,34.8902652027546
21242144,"키즈아트스쿨","","R","학문/교육","R05","학원-음악미술무용","R05A01","서예/서화/미술","P85620","예술 학원",46,"전라남도",46790,"화순군",4679025000,"화순읍",4679025033,"화순읍",4679025033200370008,1,"대지",37,8,"전라남도 화순군 화순읍 대리 37-8",467904673084,"전라남도 화순군 화순읍 대리길",17,NA,"4679025033100370008041539","한국하이빌","전라남도 화순군 화순읍 대리길 17",519760,58121,"","2",NA,126.979763231078,35.0592817909681
21392333,"도곡낚시터","","N","관광/여가/오락","N07","놀이/여가/취미","N07A02","낚시터","R91231","낚시장 운영업",46,"전라남도",46790,"화순군",4679036000,"도곡면",4679036029,"도곡면",4679036029109340002,1,"대지",934,2,"전라남도 화순군 도곡면 신덕리 934-2",467904673270,"전라남도 화순군 도곡면 신덕종방길",15,2,"4679036029109340002029072","","전라남도 화순군 도곡면 신덕종방길 15-2",519831,58154,"","1",NA,126.916035411861,35.0079798001872
20353044,"달가삼계탕","","Q","음식","Q05","닭/오리요리","Q05A01","삼계탕전문","I56111","한식 음식점업",46,"전라남도",46790,"화순군",4679025000,"화순읍",4679025024,"화순읍",4679025024203110002,1,"대지",311,2,"전라남도 화순군 화순읍 신기리 311-2",467903291032,"전라남도 화순군 화순읍 진각로",166,NA,"4679025024103110002046978","","전라남도 화순군 화순읍 진각로 166",519950,58113,"","1",NA,126.987575422133,35.0658374012568
21704252,"드림태권도장","","R","학문/교육","R07","학원-예능취미체육","R07A20","태권도장","P85611","스포츠 교육기관",46,"전라남도",46790,"화순군",4679025000,"화순읍",4679025023,"화순읍",4679025023202290000,1,"대지",229,NA,"전라남도 화순군 화순읍 만연리 229",467903291004,"전라남도 화순군 화순읍 광덕로",169,4,"4679025023102290000044926","","전라남도 화순군 화순읍 광덕로 169-4",519806,58125,"","2",NA,126.991461518591,35.0600827179841
21220445,"춘양개별용달","","F","생활서비스","F04","운송/배달/택배","F04A06","종합이삿짐대행","H49311","일반 화물자동차 운송업",46,"전라남도",46790,"화순군",4679032000,"춘양면",4679032021,"춘양면",4679032021105730043,1,"대지",573,43,"전라남도 화순군 춘양면 석정리 573-43",467904673112,"전라남도 화순군 춘양면 돌정3길",5,NA,"4679032021105730043037376","","전라남도 화순군 춘양면 돌정3길 5",519852,58157,"","1",NA,126.960654054554,34.9502374816933
21331122,"명동의류타운","","D","소매","D05","의복의류","D05A01","일반의류","G47416","셔츠 및 기타 의복 소매업",46,"전라남도",46790,"화순군",4679025000,"화순읍",4679025022,"화순읍",4679025022200450003,1,"대지",45,3,"전라남도 화순군 화순읍 향청리 45-3",467903291050,"전라남도 화순군 화순읍 중앙로",50,NA,"4679025022100450003000001","명동의류센터","전라남도 화순군 화순읍 중앙로 50",519808,58123,"","1",NA,126.98692005206,35.0603152971889
21330762,"호돌이DC마트","","D","소매","D03","종합소매점","D03A04","생활용품판매","G47190","그외 기타 종합 소매업",46,"전라남도",46790,"화순군",4679035000,"능주면",4679035026,"능주면",4679035026201020003,1,"대지",102,3,"전라남도 화순군 능주면 관영리 102-3",467904673426,"전라남도 화순군 능주면 죽수길",72,NA,"4679035026101020003025506","","전라남도 화순군 능주면 죽수길 72",519811,58153,"","1",NA,126.958853583015,34.989578113357
21394634,"영주스포츠","","D","소매","D14","운동/경기용품소매","D14A01","운동/경기용품","G47631","운동 및 경기용품 소매업",46,"전라남도",46790,"화순군",4679025000,"화순읍",4679025028,"화순읍",4679025028206770000,1,"대지",677,NA,"전라남도 화순군 화순읍 일심리 677",467903291004,"전라남도 화순군 화순읍 광덕로",140,NA,"4679025028106770000045061","","전라남도 화순군 화순읍 광덕로 140",519809,58126,"","1",NA,126.992615589708,35.0571627199358
21389737,"도레미피아노학원","","R","학문/교육","R05","학원-음악미술무용","R05A02","피아노/바이올린/기타","P85620","예술 학원",46,"전라남도",46790,"화순군",4679025000,"화순읍",4679025028,"화순읍",4679025028208610000,1,"대지",861,NA,"전라남도 화순군 화순읍 일심리 861",467903291017,"전라남도 화순군 화순읍 알메로",86,NA,"4679025028108610000045467","화순4차서라아파트","전라남도 화순군 화순읍 알메로 86",519762,58116,"","2",NA,126.99503112927,35.0631140442871
21391614,"이양당구장","","N","관광/여가/오락","N01","PC/오락/당구/볼링등","N01A03","당구장","R91135","당구장 운영업",46,"전라남도",46790,"화순군",4679034000,"이양면",4679034028,"이양면",4679034028106700038,1,"대지",670,38,"전라남도 화순군 이양면 오류리 670-38",467903291024,"전라남도 화순군 이양면 이양로",113,NA,"4679034028106700038020504","","전라남도 화순군 이양면 이양로 113",519863,58165,"","1",NA,126.989214256207,34.8898211796292
9165718,"인혜헤어샵","","F","생활서비스","F01","이/미용/건강","F01A01","여성미용실","S96112","두발미용업",46,"전라남도",46790,"화순군",4679025000,"화순읍",4679025030,"화순읍",4679025030200100001,1,"대지",10,1,"전라남도 화순군 화순읍 광덕리 10-1",467903291025,"전라남도 화순군 화순읍 자치샘로",92,NA,"4679025030100100001044638","","전라남도 화순군 화순읍 자치샘로 92",519803,58124,"","1",NA,126.989677240965,35.0589771622831
21228811,"이숍놀이방","","R","학문/교육","R08","유아교육","R08A01","놀이방","Q87210","보육시설 운영업",46,"전라남도",46790,"화순군",4679025000,"화순읍",4679025033,"화순읍",4679025033200370008,1,"대지",37,8,"전라남도 화순군 화순읍 대리 37-8",467904673084,"전라남도 화순군 화순읍 대리길",17,NA,"4679025033100370008041539","한국하이빌","전라남도 화순군 화순읍 대리길 17",519760,58121,"","1",NA,126.979763231078,35.0592817909681
20164530,"백아산찬거리작목반","","D","소매","D01","음/식료품소매","D01A07","반찬가게","G47219","기타 식료품 소매업",46,"전라남도",46790,"화순군",4679039000,"북면",4679039034,"북면",4679039034203680001,1,"대지",368,1,"전라남도 화순군 북면 수리 368-1",467904673262,"전라남도 화순군 북면 수리길",1,NA,"4679039034103680001000001","","전라남도 화순군 북면 수리길 1",519921,58101,"","",NA,127.150436392299,35.1391649004733
21395214,"새벽자원","","D","소매","D24","중고품소매/교환","D24A02","재활용/고물수집","G47869","기타 중고상품 소매업",46,"전라남도",46790,"화순군",4679025000,"화순읍",4679025030,"화순읍",4679025030201670001,1,"대지",167,1,"전라남도 화순군 화순읍 광덕리 167-1",467903291008,"전라남도 화순군 화순읍 만연로",19,NA,"4679025030101670001000001","","전라남도 화순군 화순읍 만연로 19",519803,58124,"","1",NA,126.989706077841,35.0575261300754
21223829,"에이디건축자재백화점","","D","소매","D21","철물/난방/건설자재소매","D21A01","건축백화점","G47519","페인트, 유리 및 기타 건설자재 소매업",46,"전라남도",46790,"화순군",4679034000,"이양면",4679034032,"이양면",4679034032204960000,1,"대지",496,NA,"전라남도 화순군 이양면 초방리 496",467904673464,"전라남도 화순군 이양면 초방길",125,20,"4679034032104960000021753","","전라남도 화순군 이양면 초방길 125-20",519862,58163,"","",NA,127.00175304907,34.847169488963
28493302,"럭셔리모텔","","O","숙박","O02","모텔/여관/여인숙","O02A01","모텔/여관/여인숙","I55112","여관업",46,"전라남도",46790,"화순군",4679036000,"도곡면",4679036028,"도곡면",4679036028207520000,1,"대지",752,NA,"전라남도 화순군 도곡면 천암리 752",467904673331,"전라남도 화순군 도곡면 온천1길",100,NA,"4679036028107520000030615","럭셔리","전라남도 화순군 도곡면 온천1길 100",519832,58148,"","",NA,126.90200661497,35.0337962320517
21222091,"태후사랑","","D","소매","D16","화장품소매","D16A01","화장품판매점","G47813","화장품 및 방향제 소매업",46,"전라남도",46790,"화순군",4679025000,"화순읍",4679025030,"화순읍",4679025030202960000,1,"대지",296,NA,"전라남도 화순군 화순읍 광덕리 296",467904673066,"전라남도 화순군 화순읍 노대길",53,NA,"4679025030102960000044832","","전라남도 화순군 화순읍 노대길 53",519803,58125,"","",NA,126.990611743085,35.0587595891848
21328757,"매일마트","","D","소매","D03","종합소매점","D03A02","수퍼마켓","G47121","슈퍼마켓",46,"전라남도",46790,"화순군",4679025000,"화순읍",4679025025,"화순읍",4679025025200520005,1,"대지",52,5,"전라남도 화순군 화순읍 훈리 52-5",467904673130,"전라남도 화순군 화순읍 동헌길",22,NA,"4679025025100520005046922","","전라남도 화순군 화순읍 동헌길 22",519805,58112,"","1",NA,126.985791818374,35.0637853137197
21294876,"경동보일러","","D","소매","D21","철물/난방/건설자재소매","D21A06","철물/건설자재소매","G47511","철물 및 난방용구 소매업",46,"전라남도",46790,"화순군",4679035000,"능주면",4679035023,"능주면",4679035023202250001,1,"대지",225,1,"전라남도 화순군 능주면 석고리 225-1",467904673237,"전라남도 화순군 능주면 석고길",17,NA,"4679035023102250001025243","","전라남도 화순군 능주면 석고길 17",519811,58153,"","1",NA,126.957401023146,34.990971860448
24802878,"동원FOODSYSTEM","","D","소매","D01","음/식료품소매","D01A06","육류소매","G47212","육류 소매업",46,"전라남도",46790,"화순군",4679025000,"화순읍",4679025031,"화순읍",4679025031206260000,1,"대지",626,NA,"전라남도 화순군 화순읍 삼천리 626",467904673266,"전라남도 화순군 화순읍 시장길",48,NA,"4679025031106260000046843","","전라남도 화순군 화순읍 시장길 48",519807,58122,"","",NA,126.983240951928,35.0599600066611
21386679,"이양농기구","","F","생활서비스","F03","개인/가정용품수리","F03A16","농기구수리","S95399","그외 기타 개인 및 가정용품 수리업",46,"전라남도",46790,"화순군",4679034000,"이양면",4679034029,"이양면",4679034029103190003,1,"대지",319,3,"전라남도 화순군 이양면 이양리 319-3",467903291024,"전라남도 화순군 이양면 이양로",45,NA,"4679034029103190003020282","","전라남도 화순군 이양면 이양로 45",519863,58165,"","1",NA,126.987964904237,34.8837531343305
20535810,"부자떡방앗간","","Q","음식","Q08","제과제빵떡케익","Q08A03","떡전문","I56191","제과점업",46,"전라남도",46790,"화순군",4679034000,"이양면",4679034027,"이양면",4679034027209630011,1,"대지",963,11,"전라남도 화순군 이양면 품평리 963-11",467904673192,"전라남도 화순군 이양면 봉하등길",1,NA,"4679034027109630011020177","봉하정미소","전라남도 화순군 이양면 봉하등길 1",519863,58165,"","",NA,126.987031623152,34.9045324515738
25436108,"양정달마루골","","D","소매","D01","음/식료품소매","D01A13","청과물소매","G47214","과실 및 채소 소매업",46,"전라남도",46790,"화순군",4679036000,"도곡면",4679036023,"도곡면",4679036023203870000,1,"대지",387,NA,"전라남도 화순군 도곡면 월곡리 387",467904673296,"전라남도 화순군 도곡면 양정길",27,NA,"4679036023103870000000001","","전라남도 화순군 도곡면 양정길 27",519833,58154,"","",NA,126.906686874275,34.9884615144361
21174668,"삼육두듀화순대리점","화순대리점","D","소매","D01","음/식료품소매","D01A25","두유판매","G47221","음료 소매업",46,"전라남도",46790,"화순군",4679025000,"화순읍",4679025035,"화순읍",4679025035204990001,1,"대지",499,1,"전라남도 화순군 화순읍 벽라리 499-1",467903291018,"전라남도 화순군 화순읍 오성로",476,NA,"4679025035104960001039796","","전라남도 화순군 화순읍 오성로 476",519801,58109,"","1",NA,126.961012929686,35.0518212259843
21380856,"남광전자설비","","F","생활서비스","F03","개인/가정용품수리","F03A02","가전제품수리","S95310","가전제품 수리업",46,"전라남도",46790,"화순군",4679034000,"이양면",4679034028,"이양면",4679034028106630004,1,"대지",663,4,"전라남도 화순군 이양면 오류리 663-4",467903291024,"전라남도 화순군 이양면 이양로",121,NA,"4679034028106630004020492","","전라남도 화순군 이양면 이양로 121",519863,58165,"","1",NA,126.989216143322,34.8905603726223
21379301,"컴채널","","D","소매","D08","사무/문구/컴퓨터","D08A05","컴퓨터전문매장","G47311","컴퓨터 및 주변장치, 소프트웨어 소매업",46,"전라남도",46790,"화순군",4679025000,"화순읍",4679025023,"화순읍",4679025023202430000,1,"대지",243,NA,"전라남도 화순군 화순읍 만연리 243",467903291004,"전라남도 화순군 화순읍 광덕로",180,NA,"4679025023102430000045157","화순부영아파트","전라남도 화순군 화순읍 광덕로 180",519754,58116,"","1",NA,126.993030924407,35.0608349136715
15516613,"그린랜드펜션","","O","숙박","O03","캠프/별장/펜션","O03A01","캠프/별장/펜션","I55119","기타 관광숙박시설 운영업",46,"전라남도",46790,"화순군",4679032000,"춘양면",4679032032,"춘양면",4679032032204010005,1,"대지",401,5,"전라남도 화순군 춘양면 용두리 401-5",467903291038,"전라남도 화순군 춘양면 학포로",1213,55,"4679032032104010005000001","","전라남도 화순군 춘양면 학포로 1213-55",519853,58159,"","",NA,126.978331159796,34.9417427678917
20430292,"형제건강원","","D","소매","D10","건강/미용식품","D10A07","건강원","G47216","건강보조식품 소매업",46,"전라남도",46790,"화순군",4679035000,"능주면",4679035023,"능주면",4679035023202750002,1,"대지",275,2,"전라남도 화순군 능주면 석고리 275-2",467904673237,"전라남도 화순군 능주면 석고길",2,NA,"4679035023102750002024927","","전라남도 화순군 능주면 석고길 2",519811,58153,"","",NA,126.955693948431,34.9908400043209
24790734,"명계","","D","소매","D01","음/식료품소매","D01A06","육류소매","G47212","육류 소매업",46,"전라남도",46790,"화순군",4679031000,"한천면",4679031030,"한천면",4679031030203220026,1,"대지",322,26,"전라남도 화순군 한천면 동가리 322-26",467904673517,"전라남도 화순군 한천면 헌무정길",14,1,"4679031030103220026019316","","전라남도 화순군 한천면 헌무정길 14-1",519822,58144,"","",NA,127.062547515987,34.9666794014289
21285966,"무등피브시상사","","D","소매","D21","철물/난방/건설자재소매","D21A06","철물/건설자재소매","G47511","철물 및 난방용구 소매업",46,"전라남도",46790,"화순군",4679025000,"화순읍",4679025021,"화순읍",4679025021202020001,1,"대지",202,1,"전라남도 화순군 화순읍 교리 202-1",467903291042,"전라남도 화순군 화순읍 대교로",8,NA,"4679025021102020001046814","","전라남도 화순군 화순읍 대교로 8",519804,58120,"","1",NA,126.980603499168,35.0631198482719
21683023,"성안건재","","D","소매","D21","철물/난방/건설자재소매","D21A06","철물/건설자재소매","G47511","철물 및 난방용구 소매업",46,"전라남도",46790,"화순군",4679025000,"화순읍",4679025024,"화순읍",4679025024204050003,1,"대지",405,3,"전라남도 화순군 화순읍 신기리 405-3",467903291004,"전라남도 화순군 화순읍 광덕로",215,NA,"4679025024104050003044850","화순부영아파트","전라남도 화순군 화순읍 광덕로 215",519756,58114,"","1",NA,126.990834057375,35.0647468080455
21381794,"고향부동산","","L","부동산","L01","부동산중개","L01A01","부동산중개","L68221","부동산 자문 및 중개업",46,"전라남도",46790,"화순군",4679025000,"화순읍",4679025023,"화순읍",4679025023202430000,1,"대지",243,NA,"전라남도 화순군 화순읍 만연리 243",467903291004,"전라남도 화순군 화순읍 광덕로",180,NA,"4679025023102430000045157","화순부영아파트","전라남도 화순군 화순읍 광덕로 180",519754,58116,"","1",NA,126.993030924407,35.0608349136715
21326458,"화순인테리어","","D","소매","D07","가정/주방/인테리어","D07A14","지물판매","G47513","벽지 및 장판류 소매업",46,"전라남도",46790,"화순군",4679025000,"화순읍",4679025030,"화순읍",4679025030203790000,1,"대지",379,NA,"전라남도 화순군 화순읍 광덕리 379",467903291004,"전라남도 화순군 화순읍 광덕로",127,NA,"4679025030103790000045019","","전라남도 화순군 화순읍 광덕로 127",519803,58125,"","",NA,126.992234715636,35.0560418056297
21179430,"모든기획","","F","생활서비스","F12","광고/인쇄","F12A02","간판제작종합","C33910","간판 및 광고물 제조업",46,"전라남도",46790,"화순군",4679025000,"화순읍",4679025030,"화순읍",4679025030201260001,1,"대지",126,1,"전라남도 화순군 화순읍 광덕리 126-1",467904673453,"전라남도 화순군 화순읍 천변좌길",3,NA,"4679025030101260001000001","","전라남도 화순군 화순읍 천변좌길 3",519803,58123,"","1",NA,126.988025533909,35.0560157789932
21283107,"트윈카센타","","F","생활서비스","F14","자동차/이륜차","F14A01","자동차정비/카센타","","",46,"전라남도",46790,"화순군",4679025000,"화순읍",4679025033,"화순읍",4679025033200040000,1,"대지",4,NA,"전라남도 화순군 화순읍 대리 4",467903291015,"전라남도 화순군 화순읍 쌍충로",127,2,"4679025033100040000041403","화순통일1급자동차공업사","전라남도 화순군 화순읍 쌍충로 127-2",519951,58110,"","1",NA,126.978664830272,35.0620939610484
21348385,"만복상회","","D","소매","D03","종합소매점","D03A03","잡화점","G47190","그외 기타 종합 소매업",46,"전라남도",46790,"화순군",4679032000,"춘양면",4679032021,"춘양면",4679032021105730123,1,"대지",573,123,"전라남도 화순군 춘양면 석정리 573-123",467904673009,"전라남도 화순군 춘양면 강변길",25,5,"4679032021105730123037460","","전라남도 화순군 춘양면 강변길 25-5",519852,58157,"","1",NA,126.961844958309,34.9495625832281
28516041,"뷰티크레딧화순점광주점","광주점","D","소매","D16","화장품소매","D16A01","화장품판매점","G47813","화장품 및 방향제 소매업",46,"전라남도",46790,"화순군",4679025000,"화순읍",4679025021,"화순읍",4679025021201550000,1,"대지",155,NA,"전라남도 화순군 화순읍 교리 155",467904673032,"전라남도 화순군 화순읍 교동2길",4,NA,"4679025021101550000042027","","전라남도 화순군 화순읍 교동2길 4",519804,58111,"","1",NA,126.982852735823,35.0638598583008
21182091,"153피아노학원","","R","학문/교육","R05","학원-음악미술무용","R05A02","피아노/바이올린/기타","P85620","예술 학원",46,"전라남도",46790,"화순군",4679025000,"화순읍",4679025028,"화순읍",4679025028208630001,1,"대지",863,1,"전라남도 화순군 화순읍 일심리 863-1",467904673338,"전라남도 화순군 화순읍 용곡3길",2,NA,"4679025028108630001045435","","전라남도 화순군 화순읍 용곡3길 2",519809,58115,"","2",NA,126.994809273354,35.0606423388005
24739700,"초유지농원","","D","소매","D02","선물/팬시/기념품","D02A02","꽃집/꽃배달","G47851","화초 및 산식물 소매업",46,"전라남도",46790,"화순군",4679041000,"남면",4679041026,"남면",4679041026202160000,1,"대지",216,NA,"전라남도 화순군 남면 벽송리 216",467904673179,"전라남도 화순군 남면 벽송길",34,1,"4679041026102160000006263","","전라남도 화순군 남면 벽송길 34-1",519893,58144,"","",NA,127.084468019811,35.0121344745016
20248515,"데일리","","Q","음식","Q12","커피점/카페","Q12A01","커피전문점/카페/다방","I56220","비알콜 음료점업",46,"전라남도",46790,"화순군",4679035000,"능주면",4679035023,"능주면",4679035023202560023,1,"대지",256,23,"전라남도 화순군 능주면 석고리 256-23",467904673426,"전라남도 화순군 능주면 죽수길",66,NA,"4679035023102560023025460","","전라남도 화순군 능주면 죽수길 66",519811,58153,"","",NA,126.958684854776,34.9890628578141
28484277,"천안문중화요리","","Q","음식","Q02","중식","Q02A00","중국음식/중국집","I56112","중식 음식점업",46,"전라남도",46790,"화순군",4679025000,"화순읍",4679025022,"화순읍",4679025022200020003,1,"대지",2,3,"전라남도 화순군 화순읍 향청리 2-3",467903291008,"전라남도 화순군 화순읍 만연로",41,NA,"4679025022100020003044733","","전라남도 화순군 화순읍 만연로 41",519808,58124,"","1",NA,126.990055011448,35.0594580560943
21262771,"성도물산","","D","소매","D05","의복의류","D05A01","일반의류","G47416","셔츠 및 기타 의복 소매업",46,"전라남도",46790,"화순군",4679025000,"화순읍",4679025028,"화순읍",4679025028206700000,1,"대지",670,NA,"전라남도 화순군 화순읍 일심리 670",467903291004,"전라남도 화순군 화순읍 광덕로",156,NA,"4679025028106700000045056","화순청전아파트","전라남도 화순군 화순읍 광덕로 156",519757,58126,"","1",NA,126.992628989887,35.0587493158767
28491534,"석촌","","Q","음식","Q09","유흥주점","Q09A10","룸살롱/단란주점","I56211","일반유흥 주점업",46,"전라남도",46790,"화순군",4679025000,"화순읍",4679025030,"화순읍",4679025030203040000,1,"대지",304,NA,"전라남도 화순군 화순읍 광덕리 304",467903291008,"전라남도 화순군 화순읍 만연로",22,NA,"4679025030103040000044766","","전라남도 화순군 화순읍 만연로 22",519803,58125,"","1",NA,126.990362758595,35.0576127244991
21256972,"형제오토바이","","F","생활서비스","F14","자동차/이륜차","F14A03","오토바이판매/수리","","",46,"전라남도",46790,"화순군",4679025000,"화순읍",4679025031,"화순읍",4679025031205650003,1,"대지",565,3,"전라남도 화순군 화순읍 삼천리 565-3",467903291032,"전라남도 화순군 화순읍 진각로",31,1,"4679025031105650003042737","","전라남도 화순군 화순읍 진각로 31-1",519807,58136,"","1",NA,126.985546689276,35.0543545058022
21354046,"현대자동차화순점","화순점","F","생활서비스","F14","자동차/이륜차","F14A01","자동차정비/카센타","","",46,"전라남도",46790,"화순군",4679025000,"화순읍",4679025031,"화순읍",4679025031207480003,1,"대지",748,3,"전라남도 화순군 화순읍 삼천리 748-3",467903291052,"전라남도 화순군 화순읍 충의로",60,NA,"4679025031107480003042410","현대자동차정비","전라남도 화순군 화순읍 충의로 60",519807,58136,"","1",NA,126.984184325581,35.0554878978944
21354069,"천지공인중개사사무소","","L","부동산","L01","부동산중개","L01A01","부동산중개","L68221","부동산 자문 및 중개업",46,"전라남도",46790,"화순군",4679025000,"화순읍",4679025030,"화순읍",4679025030203240000,1,"대지",324,NA,"전라남도 화순군 화순읍 광덕리 324",467903291008,"전라남도 화순군 화순읍 만연로",10,1,"4679025030103240000044782","","전라남도 화순군 화순읍 만연로 10-1",519803,58125,"","1",NA,126.990375406726,35.0565852204899
21548897,"꿈이크는놀이방","","R","학문/교육","R08","유아교육","R08A01","놀이방","Q87210","보육시설 운영업",46,"전라남도",46790,"화순군",4679025000,"화순읍",4679025024,"화순읍",4679025024204050003,1,"대지",405,3,"전라남도 화순군 화순읍 신기리 405-3",467903291004,"전라남도 화순군 화순읍 광덕로",215,NA,"4679025024104050003044850","화순부영아파트","전라남도 화순군 화순읍 광덕로 215",519756,58114,"","1",NA,126.990834057375,35.0647468080455
24792438,"그린매점","","D","소매","D03","종합소매점","D03A02","수퍼마켓","G47121","슈퍼마켓",46,"전라남도",46790,"화순군",4679032000,"춘양면",4679032032,"춘양면",4679032032204010005,1,"대지",401,5,"전라남도 화순군 춘양면 용두리 401-5",467903291038,"전라남도 화순군 춘양면 학포로",1213,55,"4679032032104010005000001","","전라남도 화순군 춘양면 학포로 1213-55",519853,58159,"","",NA,126.977947495775,34.9417846120294
21191087,"동화자동차운전면허학원","","R","학문/교육","R03","학원-자격/국가고시","R03A13","학원-자동차운전","P85651","운전학원",46,"전라남도",46790,"화순군",4679025000,"화순읍",4679025037,"화순읍",4679025037202240000,1,"대지",224,NA,"전라남도 화순군 화순읍 계소리 224",467903291028,"전라남도 화순군 화순읍 정곡로",65,NA,"4679025037102240000039546","동화자동차전문학원","전라남도 화순군 화순읍 정곡로 65",519802,58149,"","1",NA,126.956088936677,35.0459648632551
21306846,"현대태권도장","","R","학문/교육","R07","학원-예능취미체육","R07A20","태권도장","P85611","스포츠 교육기관",46,"전라남도",46790,"화순군",4679025000,"화순읍",4679025030,"화순읍",4679025030203000000,1,"대지",300,NA,"전라남도 화순군 화순읍 광덕리 300",467903291004,"전라남도 화순군 화순읍 광덕로",155,NA,"4679025030103000000044853","화순부영2차아파트","전라남도 화순군 화순읍 광덕로 155",519753,58125,"","2",NA,126.990863413724,35.0587977395712
21214143,"보훈비니루","","D","소매","D25","기타판매업","D25A15","농기구판매","G47512","기계공구 소매업",46,"전라남도",46790,"화순군",4679035000,"능주면",4679035021,"능주면",4679035021201650000,1,"대지",165,NA,"전라남도 화순군 능주면 남정리 165",467904673410,"전라남도 화순군 능주면 정암길",17,NA,"4679035021101650000024209","","전라남도 화순군 능주면 정암길 17",519813,58153,"","1",NA,126.953130735547,34.9942883861277
28489697,"다사랑치킨피자화순점","화순점","Q","음식","Q07","패스트푸드","Q07A01","피자전문","I56192","피자, 햄버거, 샌드위치 및 유사 음식점업",46,"전라남도",46790,"화순군",4679025000,"화순읍",4679025023,"화순읍",4679025023202110000,1,"대지",211,NA,"전라남도 화순군 화순읍 만연리 211",467903291050,"전라남도 화순군 화순읍 중앙로",86,NA,"4679025023102110000000001","","전라남도 화순군 화순읍 중앙로 86",519806,58125,"","1",NA,126.990790305895,35.0602844600607
21251904,"화순자동차부품상회","","D","소매","D23","자동차/자동차용품","D23A06","자동차부품판매","G45219","기타 자동차신품 부품 및 내장품 판매업",46,"전라남도",46790,"화순군",4679025000,"화순읍",4679025041,"화순읍",4679025041201600002,1,"대지",160,2,"전라남도 화순군 화순읍 내평리 160-2",467904673062,"전라남도 화순군 화순읍 내평길",36,NA,"4679025041101600002000001","","전라남도 화순군 화순읍 내평길 36",519955,58141,"","1",NA,126.967404396062,35.0369484263458
21200998,"대광복권방","","D","소매","D25","기타판매업","D25A02","복권판매","R91241","복권발행 및 판매업",46,"전라남도",46790,"화순군",4679025000,"화순읍",4679025033,"화순읍",4679025033200970003,1,"대지",97,3,"전라남도 화순군 화순읍 대리 97-3",467903291036,"전라남도 화순군 화순읍 칠충로",53,NA,"4679025033100970003041297","대광로제비앙","전라남도 화순군 화순읍 칠충로 53",519758,58121,"","1",NA,126.977308848162,35.0556644958844
21305563,"에덴식품","","D","소매","D01","음/식료품소매","D01A01","식료품점","G47219","기타 식료품 소매업",46,"전라남도",46790,"화순군",4679042000,"동면",4679042031,"동면",4679042031201040004,1,"대지",104,4,"전라남도 화순군 동면 천덕리 104-4",467904673448,"전라남도 화순군 동면 천덕길",83,NA,"4679042031101040004003458","","전라남도 화순군 동면 천덕길 83",519881,58131,"","1",NA,127.051761108207,35.0265314845228
28487434,"오근이통닭홍춘이분식","","Q","음식","Q04","분식","Q04A01","라면김밥분식","I56194","분식 및 김밥 전문점",46,"전라남도",46790,"화순군",4679034000,"이양면",4679034028,"이양면",4679034028206690006,1,"대지",669,6,"전라남도 화순군 이양면 오류리 669-6",467903291024,"전라남도 화순군 이양면 이양로",107,NA,"4679034028106690006020490","","전라남도 화순군 이양면 이양로 107",519863,58165,"","",NA,126.98911071733,34.8893425576888
21215641,"한국모터샵","","F","생활서비스","F14","자동차/이륜차","F14A03","오토바이판매/수리","","",46,"전라남도",46790,"화순군",4679025000,"화순읍",4679025030,"화순읍",4679025030200060007,1,"대지",6,7,"전라남도 화순군 화순읍 광덕리 6-7",467903291025,"전라남도 화순군 화순읍 자치샘로",87,NA,"4679025030100060007044677","","전라남도 화순군 화순읍 자치샘로 87",519803,58124,"","1",NA,126.989794598052,35.059239548957
21213637,"대동및아세아농기계화순대리점","화순대리점","D","소매","D25","기타판매업","D25A15","농기구판매","G47512","기계공구 소매업",46,"전라남도",46790,"화순군",4679025000,"화순읍",4679025031,"화순읍",4679025031204200000,1,"대지",420,NA,"전라남도 화순군 화순읍 삼천리 420",467903291043,"전라남도 화순군 화순읍 덕음로",1014,1,"4679025031104200000000001","대동공업화순점","전라남도 화순군 화순읍 덕음로 1014-1",519807,58140,"","1",NA,126.989281409427,35.050176084551
21320223,"동화석유","","D","소매","D25","기타판매업","D25A08","유류판매","G47722","가정용 액체연료 소매업",46,"전라남도",46790,"화순군",4679025000,"화순읍",4679025021,"화순읍",4679025021202110005,1,"대지",211,5,"전라남도 화순군 화순읍 교리 211-5",467904673102,"전라남도 화순군 화순읍 도서관길",7,NA,"4679025021102110005041784","","전라남도 화순군 화순읍 도서관길 7",519804,58120,"","1",NA,126.981607992174,35.0616860299387
20536371,"만포식당","","Q","음식","Q01","한식","Q01A01","한식/백반/한정식","I56111","한식 음식점업",46,"전라남도",46790,"화순군",4679025000,"화순읍",4679025027,"화순읍",4679025027201360006,1,"대지",136,6,"전라남도 화순군 화순읍 유천리 136-6",467904673304,"전라남도 화순군 화순읍 여단길",9,NA,"4679025027101360006046059","","전라남도 화순군 화순읍 여단길 9",519953,58105,"","",NA,127.000525664612,35.0710467905735
25875764,"하나로마트","이양청풍농협","D","소매","D03","종합소매점","D03A02","수퍼마켓","","",46,"전라남도",46790,"화순군",4679034000,"이양면",4679034029,"이양면",4679034029202000000,1,"대지",200,NA,"전라남도 화순군 이양면 이양리 200",467903291038,"전라남도 화순군 이양면 학포로",558,NA,"4679034029102000000000001","이양청풍농협","전라남도 화순군 이양면 학포로 558",519863,58165,"","",NA,126.988041136371,34.8873504997086
21225200,"디시마트","","D","소매","D03","종합소매점","D03B10","할인점","G47119","기타 대형 종합 소매업",46,"전라남도",46790,"화순군",4679025000,"화순읍",4679025023,"화순읍",4679025023202120000,1,"대지",212,NA,"전라남도 화순군 화순읍 만연리 212",467903291050,"전라남도 화순군 화순읍 중앙로",88,NA,"4679025023102120000044880","","전라남도 화순군 화순읍 중앙로 88",519806,58125,"","",NA,126.990976765573,35.0602769971191
24795135,"금호청과","","D","소매","D01","음/식료품소매","D01A13","청과물소매","G47214","과실 및 채소 소매업",46,"전라남도",46790,"화순군",4679025000,"화순읍",4679025022,"화순읍",4679025022200360001,1,"대지",36,1,"전라남도 화순군 화순읍 향청리 36-1",467903291025,"전라남도 화순군 화순읍 자치샘로",64,NA,"4679025022100360001046978","","전라남도 화순군 화순읍 자치샘로 64",519808,58118,"","",NA,126.98767318186,35.0605829939676
15562376,"금막동갈비3","","Q","음식","Q01","한식","Q01A02","갈비/삼겹살","I56111","한식 음식점업",46,"전라남도",46790,"화순군",4679025000,"화순읍",4679025023,"화순읍",4679025023202390004,1,"대지",239,4,"전라남도 화순군 화순읍 만연리 239-4",467903291008,"전라남도 화순군 화순읍 만연로",66,8,"4679025023102390004000001","","전라남도 화순군 화순읍 만연로 66-8",519806,58117,"","1",NA,126.991018156131,35.0613680489266
21205539,"학생백화점","","D","소매","D08","사무/문구/컴퓨터","D08A01","사무/문구용품","G47612","문구용품 소매업",46,"전라남도",46790,"화순군",4679025000,"화순읍",4679025021,"화순읍",4679025021202280000,1,"대지",228,NA,"전라남도 화순군 화순읍 교리 228",467903291025,"전라남도 화순군 화순읍 자치샘로",24,NA,"4679025021102280000042261","","전라남도 화순군 화순읍 자치샘로 24",519804,58120,"","1",NA,126.9837277782,35.0622536687869
28515278,"이바돔외식패밀리화순점","화순점","Q","음식","Q01","한식","Q01A01","한식/백반/한정식","I56111","한식 음식점업",46,"전라남도",46790,"화순군",4679025000,"화순읍",4679025030,"화순읍",4679025030201690003,1,"대지",169,3,"전라남도 화순군 화순읍 광덕리 169-3",467903291008,"전라남도 화순군 화순읍 만연로",17,NA,"4679025030101690003000001","","전라남도 화순군 화순읍 만연로 17",519803,58124,"","1",NA,126.989873383768,35.0572931563612
21194716,"화순새마을유아원","","R","학문/교육","R08","유아교육","R08A02","어린이집","Q87210","보육시설 운영업",46,"전라남도",46790,"화순군",4679025000,"화순읍",4679025025,"화순읍",4679025025200350000,1,"대지",35,NA,"전라남도 화순군 화순읍 훈리 35",467904673130,"전라남도 화순군 화순읍 동헌길",23,NA,"4679025025100350000042942","","전라남도 화순군 화순읍 동헌길 23",519805,58112,"","1",NA,126.986198573546,35.0645819550843
21207640,"문광판유리","","D","소매","D22","페인트/유리제품소매","D22A03","유리/거울판매","G47519","페인트, 유리 및 기타 건설자재 소매업",46,"전라남도",46790,"화순군",4679025000,"화순읍",4679025024,"화순읍",4679025024201990003,1,"대지",199,3,"전라남도 화순군 화순읍 신기리 199-3",467903291008,"전라남도 화순군 화순읍 만연로",99,NA,"4679025024101990003000001","","전라남도 화순군 화순읍 만연로 99",519950,58113,"","1",NA,126.989882225958,35.0645856453431
25907185,"흑염소생고기직판장","","Q","음식","Q01","한식","Q01A02","갈비/삼겹살","I56111","한식 음식점업",46,"전라남도",46790,"화순군",4679025000,"화순읍",4679025031,"화순읍",4679025031206360003,1,"대지",636,3,"전라남도 화순군 화순읍 삼천리 636-3",467903291015,"전라남도 화순군 화순읍 쌍충로",80,NA,"4679025031106360003041804","","전라남도 화순군 화순읍 쌍충로 80",519807,58122,"","3",NA,126.981795477423,35.0589473163618
21190674,"명동","","N","관광/여가/오락","N01","PC/오락/당구/볼링등","N01A03","당구장","R91135","당구장 운영업",46,"전라남도",46790,"화순군",4679025000,"화순읍",4679025023,"화순읍",4679025023202410001,1,"대지",241,1,"전라남도 화순군 화순읍 만연리 241-1",467903291004,"전라남도 화순군 화순읍 광덕로",183,NA,"4679025023102410001045025","대방마트","전라남도 화순군 화순읍 광덕로 183",519806,58117,"","4",NA,126.992205357872,35.0611074949788
25882862,"꾸러기문구","","D","소매","D08","사무/문구/컴퓨터","D08A01","사무/문구용품","G47612","문구용품 소매업",46,"전라남도",46790,"화순군",4679025000,"화순읍",4679025023,"화순읍",4679025023202440000,1,"대지",244,NA,"전라남도 화순군 화순읍 만연리 244",467903291004,"전라남도 화순군 화순읍 광덕로",202,NA,"4679025023102440000045177","화순부영아파트","전라남도 화순군 화순읍 광덕로 202",519755,58116,"","1",NA,126.993090503481,35.0622325957059
25838473,"신흥세탁소","","F","생활서비스","F02","세탁/가사서비스","F02A01","세탁소/빨래방","S96912","가정용 세탁업",46,"전라남도",46790,"화순군",4679025000,"화순읍",4679025028,"화순읍",4679025028207640000,1,"대지",764,NA,"전라남도 화순군 화순읍 일심리 764",467904673393,"전라남도 화순군 화순읍 일심4길",2,2,"4679025028107640000045087","","전라남도 화순군 화순읍 일심4길 2-2",519809,58126,"","3",NA,126.992827838483,35.0568399740794
23164819,"드림무인텔2","","O","숙박","O02","모텔/여관/여인숙","O02A01","모텔/여관/여인숙","I55112","여관업",46,"전라남도",46790,"화순군",4679036000,"도곡면",4679036032,"도곡면",4679036032206170000,1,"대지",617,NA,"전라남도 화순군 도곡면 원화리 617",467904673331,"전라남도 화순군 도곡면 온천1길",18,7,"4679036032106170000000001","나비의성","전라남도 화순군 도곡면 온천1길 18-7",519832,58148,"","",NA,126.906190742872,35.0282092416823
25811998,"능지역전슈퍼","","D","소매","D03","종합소매점","D03A02","수퍼마켓","G47121","슈퍼마켓",46,"전라남도",46790,"화순군",4679035000,"능주면",4679035026,"능주면",4679035026204290001,1,"대지",429,1,"전라남도 화순군 능주면 관영리 429-1",467904673052,"전라남도 화순군 능주면 남문길",13,NA,"4679035026104290000026269","","전라남도 화순군 능주면 남문길 13",519811,58153,"","1",NA,126.962051522522,34.9870094089779
28495160,"골드스파온천호텔","","F","생활서비스","F01","이/미용/건강","F01A03","비만/피부관리","","",46,"전라남도",46790,"화순군",4679036000,"도곡면",4679036028,"도곡면",4679036028208170000,1,"대지",817,NA,"전라남도 화순군 도곡면 천암리 817",467904673332,"전라남도 화순군 도곡면 온천2길",52,NA,"4679036028108170000028049","프라자대온천탕","전라남도 화순군 도곡면 온천2길 52",519832,58148,"","",NA,126.902957077684,35.0233575208806
25538922,"화순군비단골","","D","소매","D01","음/식료품소매","D01A13","청과물소매","G47214","과실 및 채소 소매업",46,"전라남도",46790,"화순군",4679035000,"능주면",4679035022,"능주면",4679035022201990000,1,"대지",199,NA,"전라남도 화순군 능주면 정남리 199",467904673386,"전라남도 화순군 능주면 이낫가길",23,NA,"4679035022101990000024748","","전라남도 화순군 능주면 이낫가길 23",519813,58153,"","",NA,126.955017703805,34.994061260516
23121690,"우정미용실","","F","생활서비스","F01","이/미용/건강","F01A01","여성미용실","S96112","두발미용업",46,"전라남도",46790,"화순군",4679040000,"동복면",4679040023,"동복면",4679040023200820000,1,"대지",82,NA,"전라남도 화순군 동복면 천변리 82",467904673117,"전라남도 화순군 동복면 동복시장길",14,NA,"4679040023100820000013467","","전라남도 화순군 동복면 동복시장길 14",519913,58102,"","",NA,127.1262677671,35.0717834334951
28481519,"동서남북가든","","Q","음식","Q03","일식/수산물","Q03A14","곰장어전문","I56111","한식 음식점업",46,"전라남도",46790,"화순군",4679025000,"화순읍",4679025040,"화순읍",4679025040203480003,1,"대지",348,3,"전라남도 화순군 화순읍 연양리 348-3",467903291038,"전라남도 화순군 화순읍 학포로",2630,NA,"4679025040103480003039924","남일고속관광","전라남도 화순군 화순읍 학포로 2630",519801,58141,"","1",NA,126.963553554533,35.0442080125737
24978164,"수도119","","F","생활서비스","F14","자동차/이륜차","F14A01","자동차정비/카센타","","",46,"전라남도",46790,"화순군",4679025000,"화순읍",4679025045,"화순읍",4679025045201430003,1,"대지",143,3,"전라남도 화순군 화순읍 주도리 143-3",467904673420,"전라남도 화순군 화순읍 주도길",101,8,"4679025045101430003038709","","전라남도 화순군 화순읍 주도길 101-8",519802,58149,"","",NA,126.936278625311,35.0319020764861
28515477,"고봉민김밥인화순점","화순점","Q","음식","Q04","분식","Q04A01","라면김밥분식","I56194","분식 및 김밥 전문점",46,"전라남도",46790,"화순군",4679025000,"화순읍",4679025023,"화순읍",4679025023202400007,1,"대지",240,7,"전라남도 화순군 화순읍 만연리 240-7",467903291050,"전라남도 화순군 화순읍 중앙로",93,NA,"4679025023102400007044944","","전라남도 화순군 화순읍 중앙로 93",519806,58117,"","1",NA,126.991553967053,35.0605882769146
28485667,"오륙가든","","Q","음식","Q05","닭/오리요리","Q05A09","오리고기전문","I56111","한식 음식점업",46,"전라남도",46790,"화순군",4679036000,"도곡면",4679036028,"도곡면",4679036028206960029,1,"대지",696,29,"전라남도 화순군 도곡면 천암리 696-29",467903291031,"전라남도 화순군 도곡면 지강로",183,NA,"4679036028106960029028945","","전라남도 화순군 도곡면 지강로 183",519832,58148,"","",NA,126.912488271927,35.014411184877
14974911,"양평해장국","","Q","음식","Q01","한식","Q01A05","해장국/감자탕","I56111","한식 음식점업",46,"전라남도",46790,"화순군",4679036000,"도곡면",4679036024,"도곡면",4679036024202650006,1,"대지",265,6,"전라남도 화순군 도곡면 쌍옥리 265-6",467903284067,"전라남도 화순군 도곡면 천태로",1127,NA,"4679036024102650006000001","","전라남도 화순군 도곡면 천태로 1127",519833,58154,"","1",NA,126.897188404967,34.9927023845706
28507118,"S-Oil테마셀프","테마셀프","F","생활서비스","F16","주유소/충전소","F16A01","주유소","G47711","차량용 주유소 운영업",46,"전라남도",46790,"화순군",4679025000,"화순읍",4679025028,"화순읍",4679025028205200000,1,"대지",520,NA,"전라남도 화순군 화순읍 일심리 520",467903291012,"전라남도 화순군 화순읍 서양로",376,NA,"4679025028105200000000001","","전라남도 화순군 화순읍 서양로 376",519809,58105,"","1",NA,126.998731277015,35.065353102108
25807958,"흑염소탕보신탕","","Q","음식","Q10","별식/퓨전요리","Q10A09","사철탕전문","I56111","한식 음식점업",46,"전라남도",46790,"화순군",4679025000,"화순읍",4679025028,"화순읍",4679025028204780001,1,"대지",478,1,"전라남도 화순군 화순읍 일심리 478-1",467904673336,"전라남도 화순군 화순읍 용곡1길",4,NA,"4679025028104780001045997","","전라남도 화순군 화순읍 용곡1길 4",519809,58115,"","1",NA,126.999708568292,35.0625307333639
24365235,"현대인테리어","","D","소매","D07","가정/주방/인테리어","D07A14","지물판매","G47513","벽지 및 장판류 소매업",46,"전라남도",46790,"화순군",4679025000,"화순읍",4679025022,"화순읍",4679025022200560003,1,"대지",56,3,"전라남도 화순군 화순읍 향청리 56-3",467903291050,"전라남도 화순군 화순읍 중앙로",42,NA,"4679025022100590005046924","","전라남도 화순군 화순읍 중앙로 42",519808,58123,"","",NA,126.986043117521,35.0603079700776
24551020,"명동의류타운","","D","소매","D05","의복의류","D05A01","일반의류","G47416","셔츠 및 기타 의복 소매업",46,"전라남도",46790,"화순군",4679025000,"화순읍",4679025022,"화순읍",4679025022200520000,1,"대지",52,NA,"전라남도 화순군 화순읍 향청리 52",467903291025,"전라남도 화순군 화순읍 자치샘로",48,NA,"4679025022100540000046944","미래타워","전라남도 화순군 화순읍 자치샘로 48",519808,58118,"","1",NA,126.986219438387,35.061120713468
25811171,"다도해물탕","","Q","음식","Q03","일식/수산물","Q03A05","해물찜/탕전문","I56111","한식 음식점업",46,"전라남도",46790,"화순군",4679025000,"화순읍",4679025024,"화순읍",4679025024202420005,1,"대지",242,5,"전라남도 화순군 화순읍 신기리 242-5",467903291032,"전라남도 화순군 화순읍 진각로",152,NA,"4679025024102420005043495","","전라남도 화순군 화순읍 진각로 152",519950,58113,"","3",NA,126.987349944166,35.0645645306379
24511021,"핑크엔젤","","D","소매","D16","화장품소매","D16A01","화장품판매점","G47813","화장품 및 방향제 소매업",46,"전라남도",46790,"화순군",4679025000,"화순읍",4679025028,"화순읍",4679025028207710000,1,"대지",771,NA,"전라남도 화순군 화순읍 일심리 771",467904673392,"전라남도 화순군 화순읍 일심3길",9,NA,"4679025028107710000045187","","전라남도 화순군 화순읍 일심3길 9",519809,58126,"","",NA,126.993448304462,35.0563042768119
24416286,"부흥식육점","","D","소매","D01","음/식료품소매","D01A06","육류소매","G47212","육류 소매업",46,"전라남도",46790,"화순군",4679025000,"화순읍",4679025022,"화순읍",4679025022200930001,1,"대지",93,1,"전라남도 화순군 화순읍 향청리 93-1",467903291025,"전라남도 화순군 화순읍 자치샘로",49,NA,"4679025022100930001000001","","전라남도 화순군 화순읍 자치샘로 49",519808,58118,"","",NA,126.98639115073,35.0614196139712
16155441,"토방식당","","Q","음식","Q01","한식","Q01A01","한식/백반/한정식","I56111","한식 음식점업",46,"전라남도",46790,"화순군",4679035000,"능주면",4679035023,"능주면",4679035023201960006,1,"대지",196,6,"전라남도 화순군 능주면 석고리 196-6",467904673426,"전라남도 화순군 능주면 죽수길",99,NA,"4679035023101960006025335","","전라남도 화순군 능주면 죽수길 99",519811,58153,"","",NA,126.95793607408,34.9919680139262
16168124,"향","법인황토","D","소매","D01","음/식료품소매","D01A13","청과물소매","G47214","과실 및 채소 소매업",46,"전라남도",46790,"화순군",4679035000,"능주면",4679035027,"능주면",4679035027201000001,1,"대지",100,1,"전라남도 화순군 능주면 천덕리 100-1",467903291038,"전라남도 화순군 능주면 학포로",2140,NA,"4679035027101000001000001","","전라남도 화순군 능주면 학포로 2140",519812,58142,"","",NA,126.958480219499,35.0060798589485
24758579,"100세의료기","","D","소매","D20","의약/의료품소매","D20A01","의료용품소매","G47811","의약품 및 의료용품 소매업",46,"전라남도",46790,"화순군",4679025000,"화순읍",4679025022,"화순읍",4679025022200560010,1,"대지",56,10,"전라남도 화순군 화순읍 향청리 56-10",467903291050,"전라남도 화순군 화순읍 중앙로",43,NA,"4679025022100560010046941","명성타올","전라남도 화순군 화순읍 중앙로 43",519808,58118,"","",NA,126.986225789308,35.0606069624433
23068416,"신광주세탁소","","F","생활서비스","F02","세탁/가사서비스","F02A01","세탁소/빨래방","S96912","가정용 세탁업",46,"전라남도",46790,"화순군",4679025000,"화순읍",4679025030,"화순읍",4679025030203200000,1,"대지",320,NA,"전라남도 화순군 화순읍 광덕리 320",467904673066,"전라남도 화순군 화순읍 노대길",43,1,"4679025030103200000044812","","전라남도 화순군 화순읍 노대길 43-1",519803,58125,"","",NA,126.990567030498,35.0579389326642
25818953,"백아산횟집","","Q","음식","Q03","일식/수산물","Q03A01","횟집","I56111","한식 음식점업",46,"전라남도",46790,"화순군",4679039000,"북면",4679039035,"북면",4679039035203420004,1,"대지",342,4,"전라남도 화순군 북면 노치리 342-4",467904673067,"전라남도 화순군 북면 노치길",7,52,"4679039035103420000012457","","전라남도 화순군 북면 노치길 7-52",519921,58101,"","",NA,127.174061744943,35.1501001261517
25853266,"소풍","","Q","음식","Q12","커피점/카페","Q12A06","전통찻집/인삼찻집","I56220","비알콜 음료점업",46,"전라남도",46790,"화순군",4679036000,"도곡면",4679036022,"도곡면",4679036022202380001,1,"대지",238,1,"전라남도 화순군 도곡면 효산리 238-1",467904673529,"전라남도 화순군 도곡면 효산모산길",76,NA,"4679036022102380001000001","","전라남도 화순군 도곡면 효산모산길 76",519833,58154,"","1",NA,126.914264352726,34.9886196561326
14975310,"금돼지","","Q","음식","Q01","한식","Q01A99","기타고기요리","I56111","한식 음식점업",46,"전라남도",46790,"화순군",4679025000,"화순읍",4679025023,"화순읍",4679025023200540000,1,"대지",54,NA,"전라남도 화순군 화순읍 만연리 54",467903291008,"전라남도 화순군 화순읍 만연로",61,NA,"4679025023100540000000001","","전라남도 화순군 화순읍 만연로 61",519806,58118,"","1",NA,126.990109544661,35.0612613324166
25853758,"하삼감자탕목우촌뼈다귀","화순점","Q","음식","Q01","한식","Q01A05","해장국/감자탕","I56111","한식 음식점업",46,"전라남도",46790,"화순군",4679025000,"화순읍",4679025030,"화순읍",4679025030203380000,1,"대지",338,NA,"전라남도 화순군 화순읍 광덕리 338",467904673066,"전라남도 화순군 화순읍 노대길",26,NA,"4679025030103380000044858","","전라남도 화순군 화순읍 노대길 26",519803,58125,"","2",NA,126.990850841282,35.0562556541764
15547800,"꿀꿀이슈퍼","","D","소매","D03","종합소매점","D03A02","수퍼마켓","G47121","슈퍼마켓",46,"전라남도",46790,"화순군",4679025000,"화순읍",4679025031,"화순읍",4679025031206430003,1,"대지",643,3,"전라남도 화순군 화순읍 삼천리 643-3",467903291036,"전라남도 화순군 화순읍 칠충로",89,NA,"4679025031106430003000002","","전라남도 화순군 화순읍 칠충로 89",519807,58121,"","",NA,126.980256317406,35.0575372007934
25869222,"지센","화순점","D","소매","D05","의복의류","D05A03","여성의류전문점","","",46,"전라남도",46790,"화순군",4679025000,"화순읍",4679025022,"화순읍",4679025022200030000,1,"대지",3,NA,"전라남도 화순군 화순읍 향청리 3",467903291050,"전라남도 화순군 화순읍 중앙로",75,NA,"4679025022100030000044628","","전라남도 화순군 화순읍 중앙로 75",519808,58118,"","1",NA,126.989591483974,35.0605989881249
28493855,"금강각모텔","","O","숙박","O02","모텔/여관/여인숙","O02A01","모텔/여관/여인숙","I55112","여관업",46,"전라남도",46790,"화순군",4679025000,"화순읍",4679025021,"화순읍",4679025021202420000,1,"대지",242,NA,"전라남도 화순군 화순읍 교리 242",467904673102,"전라남도 화순군 화순읍 도서관길",5,NA,"4679025021102420000041716","서광오일상사","전라남도 화순군 화순읍 도서관길 5",519804,58120,"","1",NA,126.981247818763,35.0615568080794
25895355,"하게나","","D","소매","D03","종합소매점","D03A01","편의점","G47122","체인화 편의점",46,"전라남도",46790,"화순군",4679031000,"한천면",4679031021,"한천면",4679031021207590000,1,"대지",759,NA,"전라남도 화순군 한천면 모산리 759",467903291054,"전라남도 화순군 한천면 화보로",3042,NA,"4679031021107590000000001","","전라남도 화순군 한천면 화보로 3042",519821,58147,"","1",NA,126.966551756858,34.974049314986
21462095,"부동산1번지공인중개사","","L","부동산","L01","부동산중개","L01A01","부동산중개","L68221","부동산 자문 및 중개업",46,"전라남도",46790,"화순군",4679025000,"화순읍",4679025028,"화순읍",4679025028207590000,1,"대지",759,NA,"전라남도 화순군 화순읍 일심리 759",467903291004,"전라남도 화순군 화순읍 광덕로",130,NA,"4679025028107590000045045","","전라남도 화순군 화순읍 광덕로 130",519809,58126,"","",NA,126.992626438261,35.0562794263472
25867408,"요하넥스아뜨레","화순상설점","D","소매","D05","의복의류","D05A03","여성의류전문점","","",46,"전라남도",46790,"화순군",4679025000,"화순읍",4679025023,"화순읍",4679025023202130000,1,"대지",213,NA,"전라남도 화순군 화순읍 만연리 213",467903291050,"전라남도 화순군 화순읍 중앙로",90,NA,"4679025023102130000044903","대성빌딩","전라남도 화순군 화순읍 중앙로 90",519806,58125,"","5",NA,126.991152263532,35.0602694427241
24724937,"정안농산","","D","소매","D01","음/식료품소매","D01A13","청과물소매","G47214","과실 및 채소 소매업",46,"전라남도",46790,"화순군",4679032000,"춘양면",4679032026,"춘양면",4679032026201960000,1,"대지",196,NA,"전라남도 화순군 춘양면 용곡리 196",467903291021,"전라남도 화순군 춘양면 용회로",151,12,"4679032026101960000035268","","전라남도 화순군 춘양면 용회로 151-12",519851,58159,"","",NA,126.929240467523,34.9395622214282
20172286,"송정건강원","","D","소매","D10","건강/미용식품","D10A07","건강원","G47216","건강보조식품 소매업",46,"전라남도",46790,"화순군",4679041000,"남면",4679041029,"남면",4679041029206450000,1,"대지",645,NA,"전라남도 화순군 남면 사수리 645",467904673132,"전라남도 화순군 남면 두강길",2,15,"4679041029106450000008868","","전라남도 화순군 남면 두강길 2-15",519892,58145,"","",NA,127.133804993425,34.9986415810167
20160862,"다모아","","Q","음식","Q01","한식","Q01A01","한식/백반/한정식","I56111","한식 음식점업",46,"전라남도",46790,"화순군",4679036000,"도곡면",4679036032,"도곡면",4679036032206180000,1,"대지",618,NA,"전라남도 화순군 도곡면 원화리 618",467904673331,"전라남도 화순군 도곡면 온천1길",18,NA,"4679036032106180000030641","","전라남도 화순군 도곡면 온천1길 18",519832,58148,"","",NA,126.906272245039,35.0278494132966
16128296,"길모퉁이","","Q","음식","Q12","커피점/카페","Q12A01","커피전문점/카페/다방","I56220","비알콜 음료점업",46,"전라남도",46790,"화순군",4679036000,"도곡면",4679036032,"도곡면",4679036032203460000,1,"대지",346,NA,"전라남도 화순군 도곡면 원화리 346",467903291031,"전라남도 화순군 도곡면 지강로",515,NA,"4679036032103460000028180","","전라남도 화순군 도곡면 지강로 515",519832,58148,"","",NA,126.904645262492,35.0397333041686
21181723,"한국일보","","D","소매","D13","책/서적/도서","D13A06","잡지/신문소매","G47611","서적 및 잡지류 소매업",46,"전라남도",46790,"화순군",4679025000,"화순읍",4679025024,"화순읍",4679025024203950005,1,"대지",395,5,"전라남도 화순군 화순읍 신기리 395-5",467904673194,"전라남도 화순군 화순읍 부처샘길",1,5,"4679025024103950005044844","","전라남도 화순군 화순읍 부처샘길 1-5",519950,58114,"","1",NA,126.990682850295,35.0672334425882
15505478,"골드캐슬부동산","","L","부동산","L01","부동산중개","L01A01","부동산중개","L68221","부동산 자문 및 중개업",46,"전라남도",46790,"화순군",4679025000,"화순읍",4679025022,"화순읍",4679025022200030002,1,"대지",3,2,"전라남도 화순군 화순읍 향청리 3-2",467903291050,"전라남도 화순군 화순읍 중앙로",78,NA,"4679025022100030002044704","","전라남도 화순군 화순읍 중앙로 78",519808,58124,"","",NA,126.989671880381,35.0603021921191
21212604,"정문기획","","F","생활서비스","F12","광고/인쇄","F12A02","간판제작종합","C33910","간판 및 광고물 제조업",46,"전라남도",46790,"화순군",4679025000,"화순읍",4679025025,"화순읍",4679025025200520013,1,"대지",52,13,"전라남도 화순군 화순읍 훈리 52-13",467904673130,"전라남도 화순군 화순읍 동헌길",24,NA,"4679025025100520013042897","","전라남도 화순군 화순읍 동헌길 24",519805,58112,"","1",NA,126.986044059144,35.0637784084457
24492266,"화순당구클럽","","N","관광/여가/오락","N01","PC/오락/당구/볼링등","N01A03","당구장","R91135","당구장 운영업",46,"전라남도",46790,"화순군",4679025000,"화순읍",4679025023,"화순읍",4679025023202420005,1,"대지",242,5,"전라남도 화순군 화순읍 만연리 242-5",467903291050,"전라남도 화순군 화순읍 중앙로",93,12,"4679025023102420005047066","신양빌딩","전라남도 화순군 화순읍 중앙로 93-12",519806,58117,"","2",NA,126.991950244941,35.0613487561911
25793597,"능주전통시장","","D","소매","D03","종합소매점","D03B04","시장/종합상가","G47129","기타 음·식료품 위주 종합 소매업",46,"전라남도",46790,"화순군",4679035000,"능주면",4679035026,"능주면",4679035026200940001,1,"대지",94,1,"전라남도 화순군 능주면 관영리 94-1",467904673027,"전라남도 화순군 능주면 관동길",7,NA,"4679035026100940009027028","능주보건지소","전라남도 화순군 능주면 관동길 7",519811,58153,"","1",NA,126.959224929268,34.9905277865525
23502015,"전라도","","Q","음식","Q01","한식","Q01A01","한식/백반/한정식","I56111","한식 음식점업",46,"전라남도",46790,"화순군",4679036000,"도곡면",4679036032,"도곡면",4679036032203570000,1,"대지",357,NA,"전라남도 화순군 도곡면 원화리 357",467903291031,"전라남도 화순군 도곡면 지강로",530,10,"4679036032103570000028208","","전라남도 화순군 도곡면 지강로 530-10",519832,58148,"","",NA,126.905270903628,35.0413073964987
25805461,"청전사진관현상소","","F","생활서비스","F06","사진","F06A01","사진관","M73301","인물사진 및 행사용비디오 촬영업",46,"전라남도",46790,"화순군",4679025000,"화순읍",4679025028,"화순읍",4679025028206700000,1,"대지",670,NA,"전라남도 화순군 화순읍 일심리 670",467903291004,"전라남도 화순군 화순읍 광덕로",156,NA,"4679025028106700000045056","화순청전아파트","전라남도 화순군 화순읍 광덕로 156",519757,58126,"","",NA,126.992628989887,35.0587493158767
16173460,"번지뜰버섯","","D","소매","D01","음/식료품소매","D01A13","청과물소매","G47214","과실 및 채소 소매업",46,"전라남도",46790,"화순군",4679040000,"동복면",4679040021,"동복면",4679040021203690002,1,"대지",369,2,"전라남도 화순군 동복면 독상리 369-2",467903291007,"전라남도 화순군 동복면 김삿갓로",799,18,"4679040021103690002000001","","전라남도 화순군 동복면 김삿갓로 799-18",519913,58102,"","",NA,127.128900063107,35.0665470763299
16173326,"블랙팜","","D","소매","D01","음/식료품소매","D01A13","청과물소매","G47214","과실 및 채소 소매업",46,"전라남도",46790,"화순군",4679033000,"청풍면",4679033024,"청풍면",4679033024205320002,1,"대지",532,2,"전라남도 화순군 청풍면 세청리 532-2",467903291033,"전라남도 화순군 청풍면 차풍로",116,4,"4679033024105320002000001","","전라남도 화순군 청풍면 차풍로 116-4",519872,58161,"","",NA,126.974615385985,34.8849213106536
25773716,"시애틀레스토랑","","Q","음식","Q06","양식","Q06A01","정통양식/경양식","I56114","서양식 음식점업",46,"전라남도",46790,"화순군",4679025000,"화순읍",4679025033,"화순읍",4679025033203640004,1,"대지",364,4,"전라남도 화순군 화순읍 대리 364-4",467903291036,"전라남도 화순군 화순읍 칠충로",13,NA,"4679025033103640004041040","","전라남도 화순군 화순읍 칠충로 13",519951,58138,"","1",NA,126.97372578973,35.0537863446242
25621932,"한국전산기술학원","","R","학문/교육","R06","학원-컴퓨터","R06A01","컴퓨터학원","P85691","컴퓨터 학원",46,"전라남도",46790,"화순군",4679025000,"화순읍",4679025025,"화순읍",4679025025200470001,1,"대지",47,1,"전라남도 화순군 화순읍 훈리 47-1",467904673130,"전라남도 화순군 화순읍 동헌길",21,5,"4679025025100470001042846","","전라남도 화순군 화순읍 동헌길 21-5",519805,58112,"","4",NA,126.985784906576,35.0643441302515
25861744,"이서가든","","Q","음식","Q03","일식/수산물","Q03A08","매운탕전문","I56111","한식 음식점업",46,"전라남도",46790,"화순군",4679038000,"이서면",4679038027,"이서면",4679038027205120003,1,"대지",512,3,"전라남도 화순군 이서면 야사리 512-3",467903291026,"전라남도 화순군 이서면 적벽로",785,NA,"4679038027105120003017478","","전라남도 화순군 이서면 적벽로 785",519931,58103,"","1",NA,127.077091496876,35.1098014423583
16163506,"도곡원네스스파,리조트","","O","숙박","O01","호텔/콘도","O01A01","호텔/콘도","","",46,"전라남도",46790,"화순군",4679036000,"도곡면",4679036028,"도곡면",4679036028207880000,1,"대지",788,NA,"전라남도 화순군 도곡면 천암리 788",467904673331,"전라남도 화순군 도곡면 온천1길",45,NA,"4679036028107880000000001","도곡스파랜드","전라남도 화순군 도곡면 온천1길 45",519832,58148,"2","5",NA,126.90272516266,35.0292326003587
25901127,"하림치킨호프할래","","Q","음식","Q09","유흥주점","Q09A01","호프/맥주","I56219","기타 주점업",46,"전라남도",46790,"화순군",4679039000,"북면",4679039022,"북면",4679039022206000001,1,"대지",600,1,"전라남도 화순군 북면 옥리 600-1",467904673327,"전라남도 화순군 북면 옥리길",14,22,"4679039022106010001009689","","전라남도 화순군 북면 옥리길 14-22",519922,58101,"","",NA,127.085290689416,35.1633171179761
28502478,"알파문구화순점","화순점","D","소매","D08","사무/문구/컴퓨터","D08A01","사무/문구용품","G47612","문구용품 소매업",46,"전라남도",46790,"화순군",4679025000,"화순읍",4679025025,"화순읍",4679025025200370014,1,"대지",37,14,"전라남도 화순군 화순읍 훈리 37-14",467904673130,"전라남도 화순군 화순읍 동헌길",25,NA,"4679025025100370014043000","","전라남도 화순군 화순읍 동헌길 25",519805,58112,"","1",NA,126.986338811429,35.0638800271534
25820982,"울릉도산오징어","","Q","음식","Q03","일식/수산물","Q03A13","낙지/오징어","I56111","한식 음식점업",46,"전라남도",46790,"화순군",4679025000,"화순읍",4679025028,"화순읍",4679025028208270000,1,"대지",827,NA,"전라남도 화순군 화순읍 일심리 827",467904673390,"전라남도 화순군 화순읍 일심1길",5,NA,"4679025028108270000045127","","전라남도 화순군 화순읍 일심1길 5",519809,58126,"","",NA,126.993096211959,35.0555171263009
25813318,"황토와참숯","","Q","음식","Q01","한식","Q01A02","갈비/삼겹살","I56111","한식 음식점업",46,"전라남도",46790,"화순군",4679035000,"능주면",4679035026,"능주면",4679035026204390000,1,"대지",439,NA,"전라남도 화순군 능주면 관영리 439",467903291038,"전라남도 화순군 능주면 학포로",1879,NA,"4679035026104390000027045","","전라남도 화순군 능주면 학포로 1879",519811,58153,"","1",NA,126.962241163893,34.9850008651806
21200526,"화순직업소개소","","F","생활서비스","F05","인력/고용/용역알선","F05A02","인력공급/고용알선","","",46,"전라남도",46790,"화순군",4679025000,"화순읍",4679025030,"화순읍",4679025030203210000,1,"대지",321,NA,"전라남도 화순군 화순읍 광덕리 321",467903291004,"전라남도 화순군 화순읍 광덕로",139,NA,"4679025030103210000044925","미륭타운","전라남도 화순군 화순읍 광덕로 139",519765,58125,"","1",NA,126.991180659965,35.0570696680728
25860610,"서남민물고기전문점","","Q","음식","Q03","일식/수산물","Q03A08","매운탕전문","I56111","한식 음식점업",46,"전라남도",46790,"화순군",4679036000,"도곡면",4679036032,"도곡면",4679036032202070007,1,"대지",207,7,"전라남도 화순군 도곡면 원화리 207-7",467903291031,"전라남도 화순군 도곡면 지강로",352,NA,"4679036032102070007000001","","전라남도 화순군 도곡면 지강로 352",519832,58148,"","",NA,126.907252977853,35.0257940249474
20525878,"만득옥회관","","Q","음식","Q01","한식","Q01A01","한식/백반/한정식","I56111","한식 음식점업",46,"전라남도",46790,"화순군",4679025000,"화순읍",4679025030,"화순읍",4679025030203270000,1,"대지",327,NA,"전라남도 화순군 화순읍 광덕리 327",467903291008,"전라남도 화순군 화순읍 만연로",6,NA,"4679025030103270000044755","만득회관","전라남도 화순군 화순읍 만연로 6",519803,58125,"","",NA,126.990379844514,35.0562246927249
20180428,"명소","","Q","음식","Q09","유흥주점","Q09A08","빠/카페/스탠드빠","I56211","일반유흥 주점업",46,"전라남도",46790,"화순군",4679039000,"북면",4679039022,"북면",4679039022205890000,1,"대지",589,NA,"전라남도 화순군 북면 옥리 589",467904673327,"전라남도 화순군 북면 옥리길",14,21,"4679039022105890000009666","금호화순리조트","전라남도 화순군 북면 옥리길 14-21",519922,58101,"하","1",NA,127.084165701623,35.163795377225
25905023,"그레이드문구사무용품","","D","소매","D08","사무/문구/컴퓨터","D08A01","사무/문구용품","G47612","문구용품 소매업",46,"전라남도",46790,"화순군",4679025000,"화순읍",4679025023,"화순읍",4679025023202400007,1,"대지",240,7,"전라남도 화순군 화순읍 만연리 240-7",467903291050,"전라남도 화순군 화순읍 중앙로",93,NA,"4679025023102400007044944","","전라남도 화순군 화순읍 중앙로 93",519806,58117,"","2",NA,126.991553967053,35.0605882769146
16173183,"오땡큐","천연머리염색","F","생활서비스","F01","이/미용/건강","F01A01","여성미용실","S96112","두발미용업",46,"전라남도",46790,"화순군",4679025000,"화순읍",4679025033,"화순읍",4679025033201210000,1,"대지",121,NA,"전라남도 화순군 화순읍 대리 121",467903291036,"전라남도 화순군 화순읍 칠충로",44,NA,"4679025033101210000041306","대광아파트2차","전라남도 화순군 화순읍 칠충로 44",519767,58137,"201","",NA,126.977502763083,35.0541788028239
25668905,"내평리구판장","","D","소매","D03","종합소매점","D03B06","구판장/직판장","G47129","기타 음·식료품 위주 종합 소매업",46,"전라남도",46790,"화순군",4679025000,"화순읍",4679025041,"화순읍",4679025041201590005,1,"대지",159,5,"전라남도 화순군 화순읍 내평리 159-5",467904673062,"전라남도 화순군 화순읍 내평길",45,NA,"4679025041101590005040459","","전라남도 화순군 화순읍 내평길 45",519955,58141,"","1",NA,126.967747396577,35.0366899352585
20535574,"법인화순미가","","D","소매","D01","음/식료품소매","D01A09","식자재판매","G47219","기타 식료품 소매업",46,"전라남도",46790,"화순군",4679025000,"화순읍",4679025035,"화순읍",4679025035200670000,1,"대지",67,NA,"전라남도 화순군 화순읍 벽라리 67",467903291018,"전라남도 화순군 화순읍 오성로",570,NA,"4679025035100670000040733","","전라남도 화순군 화순읍 오성로 570",519801,58109,"","",NA,126.970791367866,35.0526437355263
20166879,"현대찜갈비","","Q","음식","Q01","한식","Q01A02","갈비/삼겹살","I56111","한식 음식점업",46,"전라남도",46790,"화순군",4679025000,"화순읍",4679025023,"화순읍",4679025023200300000,1,"대지",30,NA,"전라남도 화순군 화순읍 만연리 30",467903291008,"전라남도 화순군 화순읍 만연로",79,NA,"4679025023100300004044722","","전라남도 화순군 화순읍 만연로 79",519806,58118,"A","",NA,126.990035753806,35.0628021306851
25814045,"만석회관","","Q","음식","Q03","일식/수산물","Q03A08","매운탕전문","I56111","한식 음식점업",46,"전라남도",46790,"화순군",4679025000,"화순읍",4679025024,"화순읍",4679025024203920004,1,"대지",392,4,"전라남도 화순군 화순읍 신기리 392-4",467904673453,"전라남도 화순군 화순읍 천변좌길",109,NA,"4679025024103920004047020","","전라남도 화순군 화순읍 천변좌길 109",519950,58113,"","1",NA,126.989483141379,35.0649428853813
25877219,"고향슈퍼","","Q","음식","Q01","한식","Q01A02","갈비/삼겹살","I56111","한식 음식점업",46,"전라남도",46790,"화순군",4679039000,"",NA,"",4679039026201370002,1,"대지",137,2,"전라남도 화순군 북면 원리 137-2",467904673361,"전라남도 화순군 북면 원리1길",27,3,"4679039026101370002011143","","전라남도 화순군 북면 원리1길 27-3",519923,58100,"","",NA,127.134227231446,35.191070471117
16224586,"케어셀라피부샵","","F","생활서비스","F01","이/미용/건강","F01A03","비만/피부관리","","",46,"전라남도",46790,"화순군",4679025000,"화순읍",4679025024,"화순읍",4679025024201280001,1,"대지",128,1,"전라남도 화순군 화순읍 신기리 128-1",467903291008,"전라남도 화순군 화순읍 만연로",127,NA,"4679025024101280001000001","","전라남도 화순군 화순읍 만연로 127",519950,58113,"","",NA,126.990135496406,35.0671657878653
25529130,"화순군친환경한우","","D","소매","D01","음/식료품소매","D01A13","청과물소매","G47214","과실 및 채소 소매업",46,"전라남도",46790,"화순군",4679032000,"춘양면",4679032024,"춘양면",4679032024202550005,1,"대지",255,5,"전라남도 화순군 춘양면 회송리 255-5",467903291021,"전라남도 화순군 춘양면 용회로",391,NA,"4679032024102550005000001","","전라남도 화순군 춘양면 용회로 391",519852,58157,"","",NA,126.943014954779,34.9520774158912
20491823,"진주","","D","소매","D07","가정/주방/인테리어","D07A02","주방용품","G47592","식탁 및 주방용품 소매업",46,"전라남도",46790,"화순군",4679025000,"화순읍",4679025028,"화순읍",4679025028206700000,1,"대지",670,NA,"전라남도 화순군 화순읍 일심리 670",467903291004,"전라남도 화순군 화순읍 광덕로",154,NA,"4679025028106700000045093","화순청전아파트","전라남도 화순군 화순읍 광덕로 154",519757,58126,"","",NA,126.992744914358,35.0582364738651
25866596,"황토토굴찜질방","","F","생활서비스","F09","대중목욕탕/휴게","F09A03","목욕업-찜질방","S96121","욕탕업",46,"전라남도",46790,"화순군",4679035000,"능주면",4679035024,"능주면",4679035024200480002,1,"대지",48,2,"전라남도 화순군 능주면 잠정리 48-2",467904673426,"전라남도 화순군 능주면 죽수길",13,NA,"4679035024100480002026085","한사랑맛집","전라남도 화순군 능주면 죽수길 13",519813,58153,"","1",NA,126.961319070816,34.9851642500693
15486264,"100세의료기","","D","소매","D20","의약/의료품소매","D20A01","의료용품소매","G47811","의약품 및 의료용품 소매업",46,"전라남도",46790,"화순군",4679025000,"화순읍",4679025022,"화순읍",4679025022200360001,1,"대지",36,1,"전라남도 화순군 화순읍 향청리 36-1",467903291025,"전라남도 화순군 화순읍 자치샘로",64,NA,"4679025022100360001046978","","전라남도 화순군 화순읍 자치샘로 64",519808,58118,"","",NA,126.98767318186,35.0605829939676
28489957,"프렌드과자점","","Q","음식","Q08","제과제빵떡케익","Q08A01","제과점","I56191","제과점업",46,"전라남도",46790,"화순군",4679025000,"화순읍",4679025023,"화순읍",4679025023202420001,1,"대지",242,1,"전라남도 화순군 화순읍 만연리 242-1",467903291004,"전라남도 화순군 화순읍 광덕로",193,NA,"4679025023102420001045032","광명빌딩","전라남도 화순군 화순읍 광덕로 193",519806,58117,"","1",NA,126.99228374886,35.0618653316485
25614861,"천관호프소주방","","Q","음식","Q09","유흥주점","Q09A01","호프/맥주","I56219","기타 주점업",46,"전라남도",46790,"화순군",4679025000,"화순읍",4679025031,"화순읍",4679025031206280000,1,"대지",628,NA,"전라남도 화순군 화순읍 삼천리 628",467904673266,"전라남도 화순군 화순읍 시장길",45,NA,"4679025031106280000042059","","전라남도 화순군 화순읍 시장길 45",519807,58122,"","1",NA,126.982980331956,35.0597595115313
20168447,"대림사슴건강원","","D","소매","D10","건강/미용식품","D10A07","건강원","G47216","건강보조식품 소매업",46,"전라남도",46790,"화순군",4679033000,"청풍면",4679033026,"청풍면",4679033026206390000,1,"대지",639,NA,"전라남도 화순군 청풍면 백운리 639",467904673174,"전라남도 화순군 청풍면 백운길",250,2,"4679033026106390000030974","","전라남도 화순군 청풍면 백운길 250-2",519871,58162,"","",NA,126.941346346926,34.8850958805511
21223220,"화순상회","","D","소매","D05","의복의류","D05A18","섬유/직물/주단","G47419","기타 섬유, 직물 및 의복액세서리 소매업",46,"전라남도",46790,"화순군",4679025000,"화순읍",4679025022,"화순읍",4679025022201560004,1,"대지",156,4,"전라남도 화순군 화순읍 향청리 156-4",467903291036,"전라남도 화순군 화순읍 칠충로",139,1,"4679025022101560004042262","","전라남도 화순군 화순읍 칠충로 139-1",519808,58120,"","",NA,126.983643195936,35.0611171830738
16102055,"하심청","","D","소매","D03","종합소매점","D03A02","수퍼마켓","G47121","슈퍼마켓",46,"전라남도",46790,"화순군",4679039000,"북면",4679039022,"북면",4679039022204990003,1,"대지",499,3,"전라남도 화순군 북면 옥리 499-3",467904673327,"전라남도 화순군 북면 옥리길",27,20,"4679039022104990003000001","","전라남도 화순군 북면 옥리길 27-20",519922,58101,"","",NA,127.083513654495,35.1602749675809
21173448,"성모미용전문학원","","R","학문/교육","R03","학원-자격/국가고시","R03A12","학원-미용","P85659","기타 기술 및 직업훈련학원",46,"전라남도",46790,"화순군",4679025000,"화순읍",4679025022,"화순읍",4679025022201170000,1,"대지",117,NA,"전라남도 화순군 화순읍 향청리 117",467903291032,"전라남도 화순군 화순읍 진각로",120,NA,"4679025022101170000042968","","전라남도 화순군 화순읍 진각로 120",519808,58118,"","3",NA,126.986242407403,35.0619231608779
16105128,"용두정한정식부페","","Q","음식","Q01","한식","Q01A04","한정식전문","","",46,"전라남도",46790,"화순군",4679031000,"한천면",4679031021,"한천면",4679031021207590000,1,"대지",759,NA,"전라남도 화순군 한천면 모산리 759",467903291054,"전라남도 화순군 한천면 화보로",3042,NA,"4679031021107590000000001","","전라남도 화순군 한천면 화보로 3042",519821,58147,"","",NA,126.966550851126,34.9741214209881
20160099,"대물가든","","Q","음식","Q01","한식","Q01A01","한식/백반/한정식","I56111","한식 음식점업",46,"전라남도",46790,"화순군",4679033000,"청풍면",4679033022,"청풍면",4679033022202400000,1,"대지",240,NA,"전라남도 화순군 청풍면 한지리 240",467903291033,"전라남도 화순군 청풍면 차풍로",369,NA,"4679033022102400000032374","","전라남도 화순군 청풍면 차풍로 369",519872,58161,"","",NA,126.978740982122,34.9069059530475
28523365,"SK충전소명품LPG","명품LPG","F","생활서비스","F16","주유소/충전소","F16A02","차량가스충전소","G47712","차량용 가스 충전업",46,"전라남도",46790,"화순군",4679025000,"화순읍",4679025033,"화순읍",4679025033200220000,1,"대지",22,NA,"전라남도 화순군 화순읍 대리 22",467903291015,"전라남도 화순군 화순읍 쌍충로",127,4,"4679025033100220000041376","영화산업LPG","전라남도 화순군 화순읍 쌍충로 127-4",519951,58110,"","1",NA,126.978345138736,35.062235494383
16100574,"머슬헬프","","P","스포츠","P02","실내운동시설","P02A13","헬스클럽","R91132","체력단련시설 운영업",46,"전라남도",46790,"화순군",4679025000,"화순읍",4679025023,"화순읍",4679025023202380009,1,"대지",238,9,"전라남도 화순군 화순읍 만연리 238-9",467903291008,"전라남도 화순군 화순읍 만연로",66,11,"4679025023102380010047054","","전라남도 화순군 화순읍 만연로 66-11",519806,58117,"","4",NA,126.9913322802,35.0616771411996
25765298,"두레박전통전주비빔밥","","Q","음식","Q01","한식","Q01A01","한식/백반/한정식","","",46,"전라남도",46790,"화순군",4679025000,"화순읍",4679025030,"화순읍",4679025030203470000,1,"대지",347,NA,"전라남도 화순군 화순읍 광덕리 347",467904673066,"전라남도 화순군 화순읍 노대길",14,1,"4679025030103470000044921","","전라남도 화순군 화순읍 노대길 14-1",519803,58125,"","3",NA,126.991358811185,35.0568457965574
23353210,"함평나비수산","","D","소매","D01","음/식료품소매","D01A12","수산물소매","G47213","수산물 소매업",46,"전라남도",46790,"화순군",4679025000,"화순읍",4679025028,"화순읍",4679025028207560000,1,"대지",756,NA,"전라남도 화순군 화순읍 일심리 756",467903291004,"전라남도 화순군 화순읍 광덕로",134,NA,"4679025028107560000045052","","전라남도 화순군 화순읍 광덕로 134",519809,58126,"","",NA,126.992610384923,35.0566939425319
25631917,"장꼬방","","D","소매","D07","가정/주방/인테리어","D07A04","그릇판매","G47592","식탁 및 주방용품 소매업",46,"전라남도",46790,"화순군",4679036000,"도곡면",4679036031,"도곡면",4679036031202580000,1,"대지",258,NA,"전라남도 화순군 도곡면 죽청리 258",467904673427,"전라남도 화순군 도곡면 죽청길",31,2,"4679036031102630000030441","","전라남도 화순군 도곡면 죽청길 31-2",519831,58150,"","1",NA,126.939240875914,35.0129803347183
25749165,"HOT문구프라자","HOT호점","D","소매","D08","사무/문구/컴퓨터","D08A01","사무/문구용품","G47612","문구용품 소매업",46,"전라남도",46790,"화순군",4679025000,"화순읍",4679025028,"화순읍",4679025028208630010,1,"대지",863,10,"전라남도 화순군 화순읍 일심리 863-10",467903291050,"전라남도 화순군 화순읍 중앙로",121,NA,"4679025028108630010000002","","전라남도 화순군 화순읍 중앙로 121",519809,58115,"","",NA,126.994821892212,35.060507231634
25622198,"풍원식당","","Q","음식","Q01","한식","Q01A01","한식/백반/한정식","I56111","한식 음식점업",46,"전라남도",46790,"화순군",4679040000,"동복면",4679040021,"동복면",4679040021203240000,1,"대지",324,NA,"전라남도 화순군 동복면 독상리 324",467903291019,"전라남도 화순군 동복면 오지호로",288,NA,"4679040021103240000013736","","전라남도 화순군 동복면 오지호로 288",519913,58102,"","2",NA,127.128012585094,35.0706151277567
28513215,"세븐일레븐화순전남대병원점","화순전남대병원점","D","소매","D03","종합소매점","D03A01","편의점","G47122","체인화 편의점",46,"전라남도",46790,"화순군",4679025000,"화순읍",4679025028,"화순읍",4679025028201600001,1,"대지",160,1,"전라남도 화순군 화순읍 일심리 160-1",467903291012,"전라남도 화순군 화순읍 서양로",322,NA,"4679025028101130000000002","화순전남대학교병원","전라남도 화순군 화순읍 서양로 322",519763,58128,"","1",NA,127.003244251499,35.0611716642092
25459793,"동복산삼연구원","","D","소매","D01","음/식료품소매","D01A13","청과물소매","G47214","과실 및 채소 소매업",46,"전라남도",46790,"화순군",4679040000,"동복면",4679040026,"동복면",4679040026200510000,1,"대지",51,NA,"전라남도 화순군 동복면 가수리 51",467904673147,"전라남도 화순군 동복면 만수동길",110,NA,"4679040026100510000016110","","전라남도 화순군 동복면 만수동길 110",519911,58102,"","",NA,127.182332919729,35.1252591035721
20167649,"화순전대병원장례식당","","Q","음식","Q01","한식","Q01A01","한식/백반/한정식","I56111","한식 음식점업",46,"전라남도",46790,"화순군",4679025000,"화순읍",4679025028,"화순읍",4679025028201600001,1,"대지",160,1,"전라남도 화순군 화순읍 일심리 160-1",467903291012,"전라남도 화순군 화순읍 서양로",322,NA,"4679025028101130000000002","화순전남대학교병원","전라남도 화순군 화순읍 서양로 322",519763,58128,"하","1",NA,127.003244251499,35.0611716642092
21214818,"화순정보","","D","소매","D18","사진/광학/정밀기기소매","D18A02","핸드폰소매","G47312","통신기기 소매업",46,"전라남도",46790,"화순군",4679025000,"화순읍",4679025021,"화순읍",4679025021201970012,1,"대지",197,12,"전라남도 화순군 화순읍 교리 197-12",467903291025,"전라남도 화순군 화순읍 자치샘로",11,NA,"4679025021101970009041984","","전라남도 화순군 화순읍 자치샘로 11",519804,58120,"","1",NA,126.9826009391,35.0629473224649
25844675,"코도모","","Q","음식","Q04","분식","Q04A01","라면김밥분식","I56194","분식 및 김밥 전문점",46,"전라남도",46790,"화순군",4679025000,"화순읍",4679025025,"화순읍",4679025025200380021,1,"대지",38,21,"전라남도 화순군 화순읍 훈리 38-21",467903291042,"전라남도 화순군 화순읍 대교로",70,NA,"4679025025100380021043353","","전라남도 화순군 화순읍 대교로 70",519805,58118,"","",NA,126.987079956371,35.0633453723435
23511844,"하나베이커리","","Q","음식","Q08","제과제빵떡케익","Q08A01","제과점","I56191","제과점업",46,"전라남도",46790,"화순군",4679041000,"남면",4679041021,"남면",4679041021201010022,1,"대지",101,22,"전라남도 화순군 남면 사평리 101-22",467903291011,"전라남도 화순군 남면 사호로",223,NA,"4679041021101010005006954","","전라남도 화순군 남면 사호로 223",519891,58144,"","",NA,127.094939306913,35.0074444522773
21190655,"리틀캠퍼스","","R","학문/교육","R08","유아교육","R08A02","어린이집","Q87210","보육시설 운영업",46,"전라남도",46790,"화순군",4679025000,"화순읍",4679025023,"화순읍",4679025023202310000,1,"대지",231,NA,"전라남도 화순군 화순읍 만연리 231",467903291004,"전라남도 화순군 화순읍 광덕로",170,NA,"4679025023102310000045057","화순부영아파트","전라남도 화순군 화순읍 광덕로 170",519752,58126,"","1",NA,126.993060594661,35.0602041719877
25775729,"운주골정학님청국장","","Q","음식","Q01","한식","Q01A01","한식/백반/한정식","I56111","한식 음식점업",46,"전라남도",46790,"화순군",4679037000,"도암면",4679037024,"도암면",4679037024205540000,1,"대지",554,NA,"전라남도 화순군 도암면 정천리 554",467904673412,"전라남도 화순군 도암면 정천1길",13,NA,"4679037024105540000033702","","전라남도 화순군 도암면 정천1길 13",519841,58158,"","",NA,126.890581662741,34.9489686754229
16427992,"더휴일캐슬","","O","숙박","O05","민박/하숙","O05A01","민박/하숙","","",46,"전라남도",46790,"화순군",4679038000,"이서면",4679038030,"이서면",4679038030200950027,1,"대지",95,27,"전라남도 화순군 이서면 영평리 95-27",467903291006,"전라남도 화순군 이서면 규봉로",887,42,"4679038030100950027000001","","전라남도 화순군 이서면 규봉로 887-42",519932,58103,"","",NA,127.040627270183,35.1099330054026
16503726,"백아산그린농원","","D","소매","D01","음/식료품소매","D01A13","청과물소매","G47214","과실 및 채소 소매업",46,"전라남도",46790,"화순군",4679039500,"백아면",4679039530,"백아면",4679039530202150000,1,"대지",215,NA,"전라남도 화순군 백아면 이천리 215",467904673505,"전라남도 화순군 백아면 학천길",28,5,"4679039030102150000010999","","전라남도 화순군 백아면 학천길 28-5",519923,58101,"","",NA,127.131691822308,35.1682557565078
20324034,"풍년떡방앗간","","F","생활서비스","F02","세탁/가사서비스","F02A04","방앗간/정미소","","",46,"전라남도",46790,"화순군",4679025000,"화순읍",4679025022,"화순읍",4679025022200760003,1,"대지",76,3,"전라남도 화순군 화순읍 향청리 76-3",467903291032,"전라남도 화순군 화순읍 진각로",105,NA,"4679025022100760003042704","","전라남도 화순군 화순읍 진각로 105",519808,58119,"","",NA,126.985357806307,35.0607619590792
25644306,"부부반점","","Q","음식","Q02","중식","Q02A00","중국음식/중국집","I56112","중식 음식점업",46,"전라남도",46790,"화순군",4679025000,"화순읍",4679025031,"화순읍",4679025031206600001,1,"대지",660,1,"전라남도 화순군 화순읍 삼천리 660-1",467903291036,"전라남도 화순군 화순읍 칠충로",86,NA,"4679025031106600001041585","","전라남도 화순군 화순읍 칠충로 86",519807,58137,"","1",NA,126.980227804039,35.0571854109452
16433385,"카페아더맨","아더맨","Q","음식","Q12","커피점/카페","Q12A01","커피전문점/카페/다방","I56220","비알콜 음료점업",46,"전라남도",46790,"화순군",4679025000,"화순읍",4679025040,"화순읍",4679025040202540001,1,"대지",254,1,"전라남도 화순군 화순읍 연양리 254-1",467904673307,"전라남도 화순군 화순읍 연양1길",28,NA,"4679025040102540001040034","","전라남도 화순군 화순읍 연양1길 28",519801,58141,"","1",NA,126.965493678041,35.0415924499381
25608774,"쉼터소주방","","Q","음식","Q09","유흥주점","Q09A02","소주방/포장마차","I56219","기타 주점업",46,"전라남도",46790,"화순군",4679035000,"능주면",4679035024,"능주면",4679035024201530003,1,"대지",153,3,"전라남도 화순군 능주면 잠정리 153-3",467904673426,"전라남도 화순군 능주면 죽수길",43,NA,"4679035024101520001025572","","전라남도 화순군 능주면 죽수길 43",519813,58153,"","1",NA,126.959266910433,34.9872109262748
25866900,"뼈대해장국","","Q","음식","Q01","한식","Q01A05","해장국/감자탕","I56111","한식 음식점업",46,"전라남도",46790,"화순군",4679025000,"화순읍",4679025023,"화순읍",4679025023201960000,1,"대지",196,NA,"전라남도 화순군 화순읍 만연리 196",467903291008,"전라남도 화순군 화순읍 만연로",63,NA,"4679025023101960000047033","","전라남도 화순군 화순읍 만연로 63",519806,58118,"","1",NA,126.989714030837,35.0613301517787
16521654,"화순투데이","","D","소매","D25","기타판매업","D25A23","통신판매","G47911","전자상거래업",46,"전라남도",46790,"화순군",4679025000,"화순읍",4679025028,"화순읍",4679025028207680000,1,"대지",768,NA,"전라남도 화순군 화순읍 일심리 768",467904673393,"전라남도 화순군 화순읍 일심4길",2,7,"4679025028107680000045120","","전라남도 화순군 화순읍 일심4길 2-7",519809,58126,"","",NA,126.993107069843,35.0564186284972
24344502,"카엘디용품","","F","생활서비스","F14","자동차/이륜차","F14A01","자동차정비/카센타","","",46,"전라남도",46790,"화순군",4679025000,"화순읍",4679025030,"화순읍",4679025030201800000,1,"대지",180,NA,"전라남도 화순군 화순읍 광덕리 180",467903291052,"전라남도 화순군 화순읍 충의로",118,NA,"4679025030101800000047049","","전라남도 화순군 화순읍 충의로 118",519803,58135,"","",NA,126.990651008752,35.055568918617
23592517,"롯데칠성음료","화순대리점","D","소매","D01","음/식료품소매","D01A01","식료품점","G47219","기타 식료품 소매업",46,"전라남도",46790,"화순군",4679025000,"화순읍",4679025028,"화순읍",4679025028208610000,1,"대지",861,NA,"전라남도 화순군 화순읍 일심리 861",467903291017,"전라남도 화순군 화순읍 알메로",84,NA,"4679025028108610000045441","화순4차서라아파트","전라남도 화순군 화순읍 알메로 84",519762,58116,"","",NA,126.994863690357,35.0624636408134
25850529,"동아리해장국","","Q","음식","Q01","한식","Q01A05","해장국/감자탕","I56111","한식 음식점업",46,"전라남도",46790,"화순군",4679025000,"화순읍",4679025025,"화순읍",4679025025200380015,1,"대지",38,15,"전라남도 화순군 화순읍 훈리 38-15",467903291042,"전라남도 화순군 화순읍 대교로",71,NA,"4679025025100380015043471","","전라남도 화순군 화순읍 대교로 71",519805,58113,"","3",NA,126.987242050034,35.0635360220295
16510125,"우드슬랩","","D","소매","D12","가전제품소매","D12A01","일반가전제품","G47320","가전제품 소매업",46,"전라남도",46790,"화순군",4679025000,"화순읍",4679025031,"화순읍",4679025031204410002,1,"대지",441,2,"전라남도 화순군 화순읍 삼천리 441-2",467903291043,"전라남도 화순군 화순읍 덕음로",996,NA,"4679025031104410002000001","","전라남도 화순군 화순읍 덕음로 996",519807,58140,"","",NA,126.986744735037,35.0496591476334
16521190,"동아일보매일경제화순지국,광주일보","화순지사","D","소매","D06","가방/신발/액세서리","D06A02","구두제화/캐주얼화","G47420","신발 소매업",46,"전라남도",46790,"화순군",4679025000,"화순읍",4679025024,"화순읍",4679025024204010016,1,"대지",401,16,"전라남도 화순군 화순읍 신기리 401-16",467904673194,"전라남도 화순군 화순읍 부처샘길",6,1,"4679025024104010016044949","","전라남도 화순군 화순읍 부처샘길 6-1",519950,58114,"","",NA,126.991763061738,35.0667646792179
16512043,"민트레이더스","","D","소매","D06","가방/신발/액세서리","D06A05","액세서리판매","G47419","기타 섬유, 직물 및 의복액세서리 소매업",46,"전라남도",46790,"화순군",4679025000,"화순읍",4679025024,"화순읍",4679025024204000007,1,"대지",400,7,"전라남도 화순군 화순읍 신기리 400-7",467903291004,"전라남도 화순군 화순읍 광덕로",237,1,"4679025024104000007045037","","전라남도 화순군 화순읍 광덕로 237-1",519950,58114,"","",NA,126.992352828375,35.0660574659303
16506010,"진천기업","","D","소매","D21","철물/난방/건설자재소매","D21A06","철물/건설자재소매","G47511","철물 및 난방용구 소매업",46,"전라남도",46790,"화순군",4679031000,"한천면",4679031021,"한천면",4679031021206430001,1,"대지",643,1,"전라남도 화순군 한천면 모산리 643-1",467903291038,"전라남도 화순군 한천면 학포로",1741,39,"4679031021106430001000001","","전라남도 화순군 한천면 학포로 1741-39",519821,58147,"","",NA,126.968033199982,34.9790467727682
11250958,"용광반점","","Q","음식","Q02","중식","Q02A00","중국음식/중국집","I56112","중식 음식점업",46,"전라남도",46790,"화순군",4679025000,"화순읍",4679025022,"화순읍",4679025022201530017,1,"대지",153,17,"전라남도 화순군 화순읍 향청리 153-17",467903291050,"전라남도 화순군 화순읍 중앙로",20,1,"4679025022101530017042268","","전라남도 화순군 화순읍 중앙로 20-1",519808,58122,"","",NA,126.983687697867,35.0601800890255
25692255,"황토방흙돌침대","","D","소매","D15","가구소매","D15A08","가구판매-돌침대","G47520","가구 소매업",46,"전라남도",46790,"화순군",4679025000,"화순읍",4679025043,"화순읍",4679025043206580001,1,"대지",658,1,"전라남도 화순군 화순읍 앵남리 658-1",467903291031,"전라남도 화순군 화순읍 지강로",656,NA,"4679025043106580001038173","","전라남도 화순군 화순읍 지강로 656",519961,58108,"","1",NA,126.907235136818,35.0510061932224
25813323,"배스킨라빈스31화순광덕점","화순광덕점","Q","음식","Q07","패스트푸드","Q07A07","아이스크림판매","I56191","제과점업",46,"전라남도",46790,"화순군",4679025000,"화순읍",4679025023,"화순읍",4679025023202400007,1,"대지",240,7,"전라남도 화순군 화순읍 만연리 240-7",467903291050,"전라남도 화순군 화순읍 중앙로",93,NA,"4679025023102400007044944","","전라남도 화순군 화순읍 중앙로 93",519806,58117,"","1",NA,126.991553967053,35.0605882769146
21184206,"쉐모아","화순점","D","소매","D07","가정/주방/인테리어","D07A03","침구/수예품","G47411","가정용 직물제품 소매업",46,"전라남도",46790,"화순군",4679025000,"화순읍",4679025022,"화순읍",4679025022201490000,1,"대지",149,NA,"전라남도 화순군 화순읍 향청리 149",467903291036,"전라남도 화순군 화순읍 칠충로",145,NA,"4679025022101490000042255","화순주유소","전라남도 화순군 화순읍 칠충로 145",519808,58120,"","",NA,126.983649912967,35.0614597753064
25857772,"LG베스트샵","화순점","D","소매","D12","가전제품소매","D12A01","일반가전제품","G47320","가전제품 소매업",46,"전라남도",46790,"화순군",4679025000,"화순읍",4679025021,"화순읍",4679025021202220000,1,"대지",222,NA,"전라남도 화순군 화순읍 교리 222",467903291025,"전라남도 화순군 화순읍 자치샘로",10,NA,"4679025021102220000041940","","전라남도 화순군 화순읍 자치샘로 10",519804,58120,"","1",NA,126.982374092199,35.0626749965248
16116328,"남면대덕수퍼","","D","소매","D03","종합소매점","D03A02","수퍼마켓","G47121","슈퍼마켓",46,"전라남도",46790,"화순군",4679041000,"남면",4679041028,"남면",4679041028203670001,1,"대지",367,1,"전라남도 화순군 남면 절산리 367-1",467903291040,"전라남도 화순군 남면 효당로",4,NA,"4679041028103670001008338","","전라남도 화순군 남면 효당로 4",519892,58145,"","",NA,127.121626813132,35.000365955253
25905650,"엔젤피아노학원","","R","학문/교육","R05","학원-음악미술무용","R05A02","피아노/바이올린/기타","P85620","예술 학원",46,"전라남도",46790,"화순군",4679025000,"화순읍",4679025021,"화순읍",4679025021200920001,1,"대지",92,1,"전라남도 화순군 화순읍 교리 92-1",467904673130,"전라남도 화순군 화순읍 동헌길",11,NA,"4679025021100920001042497","","전라남도 화순군 화순읍 동헌길 11",519804,58112,"","3",NA,126.984648965575,35.0640011049928
20171914,"교촌치킨","","Q","음식","Q05","닭/오리요리","Q05A08","후라이드/양념치킨","I56193","치킨 전문점",46,"전라남도",46790,"화순군",4679025000,"화순읍",4679025028,"화순읍",4679025028207550000,1,"대지",755,NA,"전라남도 화순군 화순읍 일심리 755",467903291004,"전라남도 화순군 화순읍 광덕로",136,NA,"4679025028107550000045048","","전라남도 화순군 화순읍 광덕로 136",519809,58126,"","",NA,126.992586801935,35.0568289584719
25851577,"목연철학원","","F","생활서비스","F11","개인서비스","F11A02","운명감정작명","S96992","점술 및 유사 서비스업",46,"전라남도",46790,"화순군",4679025000,"화순읍",4679025030,"화순읍",4679025030202930000,1,"대지",293,NA,"전라남도 화순군 화순읍 광덕리 293",467904673066,"전라남도 화순군 화순읍 노대길",49,1,"4679025030102930000044806","","전라남도 화순군 화순읍 노대길 49-1",519803,58125,"","2",NA,126.990582630289,35.0584528670363
25462843,"약뿌리","","D","소매","D01","음/식료품소매","D01A13","청과물소매","G47214","과실 및 채소 소매업",46,"전라남도",46790,"화순군",4679039000,"북면",4679039026,"북면",4679039026200550000,1,"대지",55,NA,"전라남도 화순군 북면 원리 55",467904673258,"전라남도 화순군 북면 송단길",54,NA,"4679039026100550000011535","","전라남도 화순군 북면 송단길 54",519923,58100,"","",NA,127.143924939613,35.1898413854249
20175187,"화순한우할인직판장식당","","Q","음식","Q01","한식","Q01A99","기타고기요리","I56111","한식 음식점업",46,"전라남도",46790,"화순군",4679025000,"화순읍",4679025033,"화순읍",4679025033201600001,1,"대지",160,1,"전라남도 화순군 화순읍 대리 160-1",467903291054,"전라남도 화순군 화순읍 화보로",4118,NA,"4679025033101600003000001","","전라남도 화순군 화순읍 화보로 4118",519951,58138,"","",NA,126.974066076639,35.0555019027624
16521176,"드마담앤틱가","","D","소매","D06","가방/신발/액세서리","D06A05","액세서리판매","G47419","기타 섬유, 직물 및 의복액세서리 소매업",46,"전라남도",46790,"화순군",4679025000,"화순읍",4679025031,"화순읍",4679025031206590000,1,"대지",659,NA,"전라남도 화순군 화순읍 삼천리 659",467903291036,"전라남도 화순군 화순읍 칠충로",86,NA,"4679025031106600001041585","","전라남도 화순군 화순읍 칠충로 86",519807,58137,"","",NA,126.980227804039,35.0571854109452
16433797,"은희헤어","","F","생활서비스","F01","이/미용/건강","F01A01","여성미용실","S96112","두발미용업",46,"전라남도",46790,"화순군",4679025000,"화순읍",4679025033,"화순읍",4679025033200970046,1,"대지",97,46,"전라남도 화순군 화순읍 대리 97-46",467903291036,"전라남도 화순군 화순읍 칠충로",61,3,"4679025033100970141046800","초코릿어린이집","전라남도 화순군 화순읍 칠충로 61-3",519951,58121,"","1",NA,126.977834865313,35.0556779434451
25624987,"벽지도정공장","","D","소매","D07","가정/주방/인테리어","D07A14","지물판매","G47513","벽지 및 장판류 소매업",46,"전라남도",46790,"화순군",4679037000,"도암면",4679037023,"도암면",4679037023208360000,1,"대지",836,NA,"전라남도 화순군 도암면 벽지리 836",467903284067,"전라남도 화순군 도암면 천태로",664,NA,"4679037023108360000033647","","전라남도 화순군 도암면 천태로 664",519841,58154,"","",NA,126.889491696677,34.9567289265101
16117221,"동복대성당","","D","소매","D03","종합소매점","D03B04","시장/종합상가","G47129","기타 음·식료품 위주 종합 소매업",46,"전라남도",46790,"화순군",4679040000,"동복면",4679040023,"동복면",4679040023201410003,1,"대지",141,3,"전라남도 화순군 동복면 천변리 141-3",467904673117,"전라남도 화순군 동복면 동복시장길",8,1,"4679040023101410003013590","","전라남도 화순군 동복면 동복시장길 8-1",519913,58102,"","",NA,127.126970113189,35.0717253915234
21224493,"현대천막사","","D","소매","D07","가정/주방/인테리어","D07A14","지물판매","G47513","벽지 및 장판류 소매업",46,"전라남도",46790,"화순군",4679035000,"능주면",4679035023,"능주면",4679035023201940001,1,"대지",194,1,"전라남도 화순군 능주면 석고리 194-1",467903017017,"전라남도 화순군 능주면 지석로",1512,NA,"4679035023101940001025270","","전라남도 화순군 능주면 지석로 1512",519811,58153,"","",NA,126.957505499482,34.9922347427439
20180766,"영일방앗간","","F","생활서비스","F02","세탁/가사서비스","F02A04","방앗간/정미소","","",46,"전라남도",46790,"화순군",4679040000,"동복면",4679040023,"동복면",4679040023201410001,1,"대지",141,1,"전라남도 화순군 동복면 천변리 141-1",467904673117,"전라남도 화순군 동복면 동복시장길",10,NA,"4679040023101410001013533","","전라남도 화순군 동복면 동복시장길 10",519913,58102,"","",NA,127.12680565842,35.0717242076625
16422163,"남산수산","","D","소매","D01","음/식료품소매","D01A12","수산물소매","G47213","수산물 소매업",46,"전라남도",46790,"화순군",4679025000,"화순읍",4679025031,"화순읍",4679025031206210000,1,"대지",621,NA,"전라남도 화순군 화순읍 삼천리 621",467904673266,"전라남도 화순군 화순읍 시장길",44,NA,"4679025031106250001042126","","전라남도 화순군 화순읍 시장길 44",519807,58122,"","",NA,126.983245868598,35.0595634272167
23368237,"윤헤어라인","","F","생활서비스","F01","이/미용/건강","F01A01","여성미용실","S96112","두발미용업",46,"전라남도",46790,"화순군",4679025000,"화순읍",4679025028,"화순읍",4679025028206880000,1,"대지",688,NA,"전라남도 화순군 화순읍 일심리 688",467904673393,"전라남도 화순군 화순읍 일심4길",1,14,"4679025028106880000045118","","전라남도 화순군 화순읍 일심4길 1-14",519809,58126,"","1",NA,126.993101323272,35.0577797127799
24368304,"화순MTB","","F","생활서비스","F14","자동차/이륜차","F14A02","자전거판매/수리","","",46,"전라남도",46790,"화순군",4679025000,"화순읍",4679025031,"화순읍",4679025031206320005,1,"대지",632,5,"전라남도 화순군 화순읍 삼천리 632-5",467903291015,"전라남도 화순군 화순읍 쌍충로",81,NA,"4679025031106320005041751","","전라남도 화순군 화순읍 쌍충로 81",519807,58121,"","",NA,126.981497502626,35.0591070687293
21272917,"신태양설비","","F","생활서비스","F15","주택수리","F15A06","수도설비","F42201","배관 및 냉·난방 공사업",46,"전라남도",46790,"화순군",4679025000,"화순읍",4679025031,"화순읍",4679025031206260010,1,"대지",626,10,"전라남도 화순군 화순읍 삼천리 626-10",467903291036,"전라남도 화순군 화순읍 칠충로",122,NA,"4679025031106260010000001","","전라남도 화순군 화순읍 칠충로 122",519807,58122,"","",NA,126.982861542951,35.0596142898357
16434755,"갈비예가","","Q","음식","Q01","한식","Q01A99","기타고기요리","I56111","한식 음식점업",46,"전라남도",46790,"화순군",4679036000,"도곡면",4679036032,"도곡면",4679036032205730012,1,"대지",573,12,"전라남도 화순군 도곡면 원화리 573-12",467903291031,"전라남도 화순군 도곡면 지강로",558,NA,"4679036032105730012000001","","전라남도 화순군 도곡면 지강로 558",519832,58148,"","",NA,126.904233565431,35.0434794329396
24722007,"도곡친환경한약초작목반","","D","소매","D01","음/식료품소매","D01A13","청과물소매","G47214","과실 및 채소 소매업",46,"전라남도",46790,"화순군",4679036000,"도곡면",4679036021,"도곡면",4679036021201140002,1,"대지",114,2,"전라남도 화순군 도곡면 대곡리 114-2",467904673434,"전라남도 화순군 도곡면 중한실길",23,2,"4679036021101130000030216","","전라남도 화순군 도곡면 중한실길 23-2",519831,58155,"","",NA,126.935262763176,34.9995234532308
16499398,"빈티지나무","","Q","음식","Q12","커피점/카페","Q12A01","커피전문점/카페/다방","I56220","비알콜 음료점업",46,"전라남도",46790,"화순군",4679025000,"화순읍",4679025024,"화순읍",4679025024203950006,1,"대지",395,6,"전라남도 화순군 화순읍 신기리 395-6",467904673194,"전라남도 화순군 화순읍 부처샘길",1,3,"4679025024103950006044807","","전라남도 화순군 화순읍 부처샘길 1-3",519950,58114,"","",NA,126.99068462558,35.0670892317262
21177302,"무등카센터","","F","생활서비스","F14","자동차/이륜차","F14A01","자동차정비/카센타","","",46,"전라남도",46790,"화순군",4679025000,"화순읍",4679025021,"화순읍",4679025021201860005,1,"대지",186,5,"전라남도 화순군 화순읍 교리 186-5",467903291042,"전라남도 화순군 화순읍 대교로",5,NA,"4679025021101860005041544","화순카센터","전라남도 화순군 화순읍 대교로 5",519804,58111,"","1",NA,126.979939834667,35.0635920160959
16103196,"스타일나개","","D","소매","D09","애견/애완/동물","D09A01","애견/애완/동물사육판매","G47852","애완용 동물 및 관련용품 소매업",46,"전라남도",46790,"화순군",4679025000,"화순읍",4679025021,"화순읍",4679025021200700005,1,"대지",70,5,"전라남도 화순군 화순읍 교리 70-5",467903291032,"전라남도 화순군 화순읍 진각로",181,20,"4679025021100700005042583","화순2차서라아파트","전라남도 화순군 화순읍 진각로 181-20",519804,58112,"","",NA,126.985730462083,35.0678591736096
21164793,"효성기업","","D","소매","D21","철물/난방/건설자재소매","D21A08","셔터/새시판매","G47511","철물 및 난방용구 소매업",46,"전라남도",46790,"화순군",4679025000,"화순읍",4679025030,"화순읍",4679025030203280000,1,"대지",328,NA,"전라남도 화순군 화순읍 광덕리 328",467904673066,"전라남도 화순군 화순읍 노대길",25,1,"4679025030103280000044820","효성기업","전라남도 화순군 화순읍 노대길 25-1",519803,58125,"","1",NA,126.990577034278,35.0562353478533
20530448,"명성식당","","Q","음식","Q01","한식","Q01A01","한식/백반/한정식","I56111","한식 음식점업",46,"전라남도",46790,"화순군",4679035000,"능주면",4679035024,"능주면",4679035024201740001,1,"대지",174,1,"전라남도 화순군 능주면 잠정리 174-1",467904673426,"전라남도 화순군 능주면 죽수길",59,NA,"4679035024101740001025398","","전라남도 화순군 능주면 죽수길 59",519813,58153,"","1",NA,126.958331885411,34.9883927802688
25795068,"우리회관","","Q","음식","Q01","한식","Q01A01","한식/백반/한정식","I56111","한식 음식점업",46,"전라남도",46790,"화순군",4679039000,"북면",4679039024,"북면",4679039024200950000,1,"대지",95,NA,"전라남도 화순군 북면 맹리 95",467904673446,"전라남도 화순군 북면 창삼길",14,NA,"4679039024100950000010336","우리회관","전라남도 화순군 북면 창삼길 14",519922,58100,"","",NA,127.101176322535,35.1880443545698
25290433,"춘양개천더덕","","D","소매","D01","음/식료품소매","D01A13","청과물소매","G47214","과실 및 채소 소매업",46,"전라남도",46790,"화순군",4679032000,"춘양면",4679032025,"춘양면",4679032025202090000,1,"대지",209,NA,"전라남도 화순군 춘양면 양곡리 209",467903291021,"전라남도 화순군 춘양면 용회로",232,6,"4679032025102090000000001","","전라남도 화순군 춘양면 용회로 232-6",519852,58157,"","",NA,126.934675869974,34.9424945606774
24681310,"싸리골","","D","소매","D05","의복의류","D05A01","일반의류","G47416","셔츠 및 기타 의복 소매업",46,"전라남도",46790,"화순군",4679025000,"화순읍",4679025030,"화순읍",4679025030203100000,1,"대지",310,NA,"전라남도 화순군 화순읍 광덕리 310",467903291008,"전라남도 화순군 화순읍 만연로",16,NA,"4679025030103100000044763","","전라남도 화순군 화순읍 만연로 16",519803,58125,"","",NA,126.990369970327,35.057026866972
20532295,"수림정","","Q","음식","Q01","한식","Q01A01","한식/백반/한정식","I56111","한식 음식점업",46,"전라남도",46790,"화순군",4679025000,"화순읍",4679025024,"화순읍",4679025024202420002,1,"대지",242,2,"전라남도 화순군 화순읍 신기리 242-2",467903291032,"전라남도 화순군 화순읍 진각로",154,NA,"4679025024102420002000001","","전라남도 화순군 화순읍 진각로 154",519950,58113,"","1",NA,126.987621329753,35.0647831345072
25816149,"명화식당","","Q","음식","Q01","한식","Q01A01","한식/백반/한정식","I56111","한식 음식점업",46,"전라남도",46790,"화순군",4679025000,"화순읍",4679025025,"화순읍",4679025025200520010,1,"대지",52,10,"전라남도 화순군 화순읍 훈리 52-10",467903291042,"전라남도 화순군 화순읍 대교로",61,1,"4679025025100520010042880","","전라남도 화순군 화순읍 대교로 61-1",519805,58112,"","1",NA,126.985946625934,35.0636784388002
16521507,"준인테리어","","D","소매","D07","가정/주방/인테리어","D07A01","인테리어/욕실용품/커튼","G47599","그외 기타 분류안된 가정용품 소매업",46,"전라남도",46790,"화순군",4679025000,"화순읍",4679025021,"화순읍",4679025021201080029,1,"대지",108,29,"전라남도 화순군 화순읍 교리 108-29",467903291042,"전라남도 화순군 화순읍 대교로",39,NA,"4679025021101080029042243","","전라남도 화순군 화순읍 대교로 39",519804,58112,"","1",NA,126.983624778116,35.0634877377091
21291567,"영카오디오","","D","소매","D23","자동차/자동차용품","D23A06","자동차부품판매","G45219","기타 자동차신품 부품 및 내장품 판매업",46,"전라남도",46790,"화순군",4679025000,"화순읍",4679025031,"화순읍",4679025031207090000,1,"대지",709,NA,"전라남도 화순군 화순읍 삼천리 709",467903291015,"전라남도 화순군 화순읍 쌍충로",50,NA,"4679025031107090000041806","","전라남도 화순군 화순읍 쌍충로 50",519807,58122,"","",NA,126.981829156542,35.0562343526642
20513258,"오래오래","","Q","음식","Q06","양식","Q06A01","정통양식/경양식","","",46,"전라남도",46790,"화순군",4679036000,"도곡면",4679036028,"도곡면",4679036028205380000,1,"대지",538,NA,"전라남도 화순군 도곡면 천암리 538",467903291031,"전라남도 화순군 도곡면 지강로",308,NA,"4679036028105380000000001","","전라남도 화순군 도곡면 지강로 308",519832,58148,"","1",NA,126.905625022177,35.0229669617845
25871432,"하나로마트","능주농협한천지소","D","소매","D03","종합소매점","D03A02","수퍼마켓","G47121","슈퍼마켓",46,"전라남도",46790,"화순군",4679031000,"한천면",4679031023,"한천면",4679031023206470001,1,"대지",647,1,"전라남도 화순군 한천면 한계리 647-1",467903291030,"전라남도 화순군 한천면 죽헌로",277,NA,"4679031023106470001018770","능주농협한천지소","전라남도 화순군 한천면 죽헌로 277",519823,58147,"","2",NA,127.000123255595,34.9780803081251
16505751,"마벨르메종","","D","소매","D06","가방/신발/액세서리","D06A05","액세서리판매","G47419","기타 섬유, 직물 및 의복액세서리 소매업",46,"전라남도",46790,"화순군",4679025000,"화순읍",4679025040,"화순읍",4679025040200700002,1,"대지",70,2,"전라남도 화순군 화순읍 연양리 70-2",467904673308,"전라남도 화순군 화순읍 연양2길",85,NA,"4679025040100700002000001","","전라남도 화순군 화순읍 연양2길 85",519801,58141,"","",NA,126.970442929802,35.03935397571
16432832,"3.14커피숍","","Q","음식","Q12","커피점/카페","Q12A01","커피전문점/카페/다방","I56220","비알콜 음료점업",46,"전라남도",46790,"화순군",4679025000,"화순읍",4679025030,"화순읍",4679025030202720009,1,"대지",272,9,"전라남도 화순군 화순읍 광덕리 272-9",467904673094,"전라남도 화순군 화순읍 덕촌길",38,3,"4679025030102720009043172","","전라남도 화순군 화순읍 덕촌길 38-3",519803,58136,"","",NA,126.986713330651,35.0539766491345
28503457,"페리카나","능주점","Q","음식","Q05","닭/오리요리","Q05A08","후라이드/양념치킨","I56193","치킨 전문점",46,"전라남도",46790,"화순군",4679035000,"능주면",4679035023,"능주면",4679035023202550003,1,"대지",255,3,"전라남도 화순군 능주면 석고리 255-3",467904673426,"전라남도 화순군 능주면 죽수길",67,NA,"4679035023102550003025411","","전라남도 화순군 능주면 죽수길 67",519811,58153,"","",NA,126.958342257457,34.989303301875
16495105,"도담00도담","","Q","음식","Q12","커피점/카페","Q12A01","커피전문점/카페/다방","I56220","비알콜 음료점업",46,"전라남도",46790,"화순군",4679025000,"화순읍",4679025021,"화순읍",4679025021203830000,1,"대지",383,NA,"전라남도 화순군 화순읍 교리 383",467903291036,"전라남도 화순군 화순읍 칠충로",145,NA,"4679025022101490000042266","","전라남도 화순군 화순읍 칠충로 145",519804,58120,"","",NA,126.983758861067,35.0615147727388
25831865,"사이버넷해법수학","화순교실","R","학문/교육","R01","학원-보습교습입시","R01A01","학원-입시","P85501","일반 교과 학원",46,"전라남도",46790,"화순군",4679025000,"화순읍",4679025023,"화순읍",4679025023202230000,1,"대지",223,NA,"전라남도 화순군 화순읍 만연리 223",467903291050,"전라남도 화순군 화순읍 중앙로",98,NA,"4679025023102240000045022","","전라남도 화순군 화순읍 중앙로 98",519806,58125,"","4",NA,126.992161182455,35.0602417731022
21220454,"로또화순점","화순점","D","소매","D25","기타판매업","D25A02","복권판매","R91241","복권발행 및 판매업",46,"전라남도",46790,"화순군",4679025000,"화순읍",4679025027,"화순읍",4679025027203370000,1,"대지",337,NA,"전라남도 화순군 화순읍 유천리 337",467903291004,"전라남도 화순군 화순읍 광덕로",212,NA,"4679025027103370000047071","","전라남도 화순군 화순읍 광덕로 212",519953,58115,"","1",NA,126.9926890095,35.063680533951
25868610,"전원식당","","Q","음식","Q04","분식","Q04A02","국수/만두/칼국수","I56194","분식 및 김밥 전문점",46,"전라남도",46790,"화순군",4679041000,"남면",4679041021,"남면",4679041021201030004,1,"대지",103,4,"전라남도 화순군 남면 사평리 103-4",467903291011,"전라남도 화순군 남면 사호로",222,NA,"4679041021101030010006952","","전라남도 화순군 남면 사호로 222",519891,58144,"","",NA,127.094889893173,35.006957312515
27784634,"참사랑어린이집","","R","학문/교육","R08","유아교육","R08A02","어린이집","Q87210","보육시설 운영업",46,"전라남도",46790,"화순군",4679025000,"화순읍",4679025023,"화순읍",4679025023202430000,1,"대지",243,NA,"전라남도 화순군 화순읍 만연리 243",467903291004,"전라남도 화순군 화순읍 광덕로",180,NA,"4679025023102430000045157","화순부영아파트","전라남도 화순군 화순읍 광덕로 180",519754,58116,"301","",NA,126.993425115251,35.061766639043
24295388,"행운축산","","D","소매","D01","음/식료품소매","D01A06","육류소매","G47212","육류 소매업",46,"전라남도",46790,"화순군",4679025000,"화순읍",4679025031,"화순읍",4679025031206300001,1,"대지",630,1,"전라남도 화순군 화순읍 삼천리 630-1",467903291036,"전라남도 화순군 화순읍 칠충로",127,2,"4679025031106300001042081","","전라남도 화순군 화순읍 칠충로 127-2",519807,58122,"","",NA,126.983073621758,35.0601929707105
21645637,"모터플카센타","","F","생활서비스","F14","자동차/이륜차","F14A01","자동차정비/카센타","","",46,"전라남도",46790,"화순군",4679025000,"화순읍",4679025031,"화순읍",4679025031206440000,1,"대지",644,NA,"전라남도 화순군 화순읍 삼천리 644",467903291036,"전라남도 화순군 화순읍 칠충로",83,8,"4679025031106440000000001","","전라남도 화순군 화순읍 칠충로 83-8",519807,58121,"","1",NA,126.980153519089,35.0578698585013
23045490,"빨간여우","","F","생활서비스","F01","이/미용/건강","F01A01","여성미용실","S96112","두발미용업",46,"전라남도",46790,"화순군",4679035000,"능주면",4679035023,"능주면",4679035023202550003,1,"대지",255,3,"전라남도 화순군 능주면 석고리 255-3",467904673426,"전라남도 화순군 능주면 죽수길",67,NA,"4679035023102550003025411","","전라남도 화순군 능주면 죽수길 67",519811,58153,"","",NA,126.958342257457,34.989303301875
25891177,"우먼파워귀금속시계","","D","소매","D26","시계/귀금속소매","D26A01","시계/귀금속","G47830","시계 및 귀금속 소매업",46,"전라남도",46790,"화순군",4679025000,"화순읍",4679025030,"화순읍",4679025030202880000,1,"대지",288,NA,"전라남도 화순군 화순읍 광덕리 288",467903291008,"전라남도 화순군 화순읍 만연로",28,1,"4679025030102880000044759","","전라남도 화순군 화순읍 만연로 28-1",519803,58125,"","",NA,126.990377025671,35.0582348171997
25870224,"노스페이스화순점","화순점","D","소매","D05","의복의류","D05A02","캐쥬얼/스포츠의류","G47416","셔츠 및 기타 의복 소매업",46,"전라남도",46790,"화순군",4679025000,"화순읍",4679025021,"화순읍",4679025021202390000,1,"대지",239,NA,"전라남도 화순군 화순읍 교리 239",467903291050,"전라남도 화순군 화순읍 중앙로",5,NA,"4679025021102390000000001","","전라남도 화순군 화순읍 중앙로 5",519804,58120,"","1",NA,126.982173758567,35.0611499324802
20437202,"골망태","","Q","음식","Q01","한식","Q01A01","한식/백반/한정식","I56111","한식 음식점업",46,"전라남도",46790,"화순군",4679041000,"남면",4679041030,"남면",4679041030202930002,1,"대지",293,2,"전라남도 화순군 남면 주산리 293-2",467903291046,"전라남도 화순군 남면 모후로",609,25,"4679041030102930002000001","","전라남도 화순군 남면 모후로 609-25",519892,58146,"","",NA,127.143721601603,34.9847216655208
21699599,"한정순대체요법센터","","F","생활서비스","F01","이/미용/건강","F01A03","비만/피부관리","","",46,"전라남도",46790,"화순군",4679025000,"화순읍",4679025023,"화순읍",4679025023202380002,1,"대지",238,2,"전라남도 화순군 화순읍 만연리 238-2",467903291008,"전라남도 화순군 화순읍 만연로",72,1,"4679025023102380002044846","건영빌딩","전라남도 화순군 화순읍 만연로 72-1",519806,58117,"","",NA,126.990715308931,35.0619244042772
27870690,"낙원어린이집","","R","학문/교육","R08","유아교육","R08A02","어린이집","Q87210","보육시설 운영업",46,"전라남도",46790,"화순군",4679042000,"동면",4679042030,"동면",4679042030200690003,1,"대지",69,3,"전라남도 화순군 동면 오동리 69-3",467904673457,"전라남도 화순군 동면 천운길",35,NA,"4679042030100690003003857","낙원어린이집","전라남도 화순군 동면 천운길 35",519883,58132,"","",NA,127.057339131237,35.0360578967214
25812351,"여미향","","Q","음식","Q10","별식/퓨전요리","Q10A05","순대전문점","I56111","한식 음식점업",46,"전라남도",46790,"화순군",4679025000,"화순읍",4679025024,"화순읍",4679025024201310004,1,"대지",131,4,"전라남도 화순군 화순읍 신기리 131-4",467904673539,"전라남도 화순군 화순읍 신기북길",22,3,"4679025024101310004044694","","전라남도 화순군 화순읍 신기북길 22-3",519950,58113,"","1",NA,126.989992567728,35.0663082580602
25906304,"우향찻집","","Q","음식","Q12","커피점/카페","Q12A06","전통찻집/인삼찻집","I56220","비알콜 음료점업",46,"전라남도",46790,"화순군",4679025000,"화순읍",4679025021,"화순읍",4679025021200970002,1,"대지",97,2,"전라남도 화순군 화순읍 교리 97-2",467903291036,"전라남도 화순군 화순읍 칠충로",165,NA,"4679025021100970002042533","","전라남도 화순군 화순읍 칠충로 165",519804,58120,"","3",NA,126.984769300015,35.0631367584681
25900212,"배터지는샘돈까스","","Q","음식","Q06","양식","Q06A02","돈가스전문점","I56114","서양식 음식점업",46,"전라남도",46790,"화순군",4679025000,"화순읍",4679025023,"화순읍",4679025023202270000,1,"대지",227,NA,"전라남도 화순군 화순읍 만연리 227",467903291004,"전라남도 화순군 화순읍 광덕로",169,2,"4679025023102270000044956","","전라남도 화순군 화순읍 광덕로 169-2",519806,58125,"","1",NA,126.991856138671,35.0600859983247
15617860,"모사개발","","L","부동산","L01","부동산중개","L01A01","부동산중개","","",46,"전라남도",46790,"화순군",4679025000,"화순읍",4679025028,"화순읍",4679025028208000000,1,"대지",800,NA,"전라남도 화순군 화순읍 일심리 800",467904673391,"전라남도 화순군 화순읍 일심2길",7,1,"4679025028108000000045153","","전라남도 화순군 화순읍 일심2길 7-1",519809,58126,"","2",NA,126.993234280679,35.0558788370876
25732960,"화순기정떡","","D","소매","D01","음/식료품소매","D01A01","식료품점","G47219","기타 식료품 소매업",46,"전라남도",46790,"화순군",4679025000,"화순읍",4679025022,"화순읍",4679025022200930001,1,"대지",93,1,"전라남도 화순군 화순읍 향청리 93-1",467903291025,"전라남도 화순군 화순읍 자치샘로",49,NA,"4679025022100930001000001","","전라남도 화순군 화순읍 자치샘로 49",519808,58118,"","1",NA,126.98639115073,35.0614196139712
24726215,"석정표고","","D","소매","D01","음/식료품소매","D01A13","청과물소매","G47214","과실 및 채소 소매업",46,"전라남도",46790,"화순군",4679032000,"춘양면",4679032021,"춘양면",4679032021204340001,1,"대지",434,1,"전라남도 화순군 춘양면 석정리 434-1",467904673112,"전라남도 화순군 춘양면 돌정3길",35,NA,"4679032021104340001000001","","전라남도 화순군 춘양면 돌정3길 35",519852,58157,"","",NA,126.958705725788,34.9493373996186
24807873,"만년식품","","D","소매","D01","음/식료품소매","D01A01","식료품점","G47219","기타 식료품 소매업",46,"전라남도",46790,"화순군",4679037000,"도암면",4679037025,"도암면",4679037025207890000,1,"대지",789,NA,"전라남도 화순군 도암면 원천리 789",467904673043,"전라남도 화순군 도암면 권동길",34,7,"4679037025107890000034098","","전라남도 화순군 도암면 권동길 34-7",519841,58158,"","",NA,126.894147947279,34.9369402155697
21252315,"보성공업사","","F","생활서비스","F03","개인/가정용품수리","F03A16","농기구수리","S95399","그외 기타 개인 및 가정용품 수리업",46,"전라남도",46790,"화순군",4679040000,"동복면",4679040021,"동복면",4679040021203680002,1,"대지",368,2,"전라남도 화순군 동복면 독상리 368-2",467903291007,"전라남도 화순군 동복면 김삿갓로",824,NA,"4679040021103680002014116","","전라남도 화순군 동복면 김삿갓로 824",519913,58102,"","1",NA,127.129486279161,35.0681287742411
21711943,"엔젤어린이집","","R","학문/교육","R08","유아교육","R08A02","어린이집","Q87210","보육시설 운영업",46,"전라남도",46790,"화순군",4679025000,"화순읍",4679025028,"화순읍",4679025028208610000,1,"대지",861,NA,"전라남도 화순군 화순읍 일심리 861",467903291017,"전라남도 화순군 화순읍 알메로",86,NA,"4679025028108610000045467","화순4차서라아파트","전라남도 화순군 화순읍 알메로 86",519762,58116,"","1",NA,126.99503112927,35.0631140442871
28348115,"코코베베어린이집","","R","학문/교육","R08","유아교육","R08A02","어린이집","Q87210","보육시설 운영업",46,"전라남도",46790,"화순군",4679025000,"화순읍",4679025024,"화순읍",4679025024204050003,1,"대지",405,3,"전라남도 화순군 화순읍 신기리 405-3",467903291004,"전라남도 화순군 화순읍 광덕로",213,NA,"4679025024104050003045035","화순부영아파트","전라남도 화순군 화순읍 광덕로 213",519756,58114,"605","",NA,126.990916117526,35.0643148136549
24879231,"화순리딤슈퍼마켓","","D","소매","D03","종합소매점","D03A02","수퍼마켓","G47121","슈퍼마켓",46,"전라남도",46790,"화순군",4679025000,"화순읍",4679025033,"화순읍",4679025033203520000,1,"대지",352,NA,"전라남도 화순군 화순읍 대리 352",467903291012,"전라남도 화순군 화순읍 서양로",4,NA,"4679025033103520000000001","원광","전라남도 화순군 화순읍 서양로 4",519951,58139,"","",NA,126.972903379783,35.0529320584812
12162628,"홍익미술학원","","R","학문/교육","R05","학원-음악미술무용","R05A01","서예/서화/미술","P85620","예술 학원",46,"전라남도",46790,"화순군",4679025000,"화순읍",4679025023,"화순읍",4679025023202440000,1,"대지",244,NA,"전라남도 화순군 화순읍 만연리 244",467903291004,"전라남도 화순군 화순읍 광덕로",204,NA,"4679025023102440000045059","화순부영아파트","전라남도 화순군 화순읍 광덕로 204",519755,58116,"","",NA,126.992729203174,35.0630859365001
12094502,"하나로마트능주농협본점","능주농협본점","D","소매","D03","종합소매점","D03A02","수퍼마켓","G47121","슈퍼마켓",46,"전라남도",46790,"화순군",4679035000,"능주면",4679035026,"능주면",4679035026201030000,1,"대지",103,NA,"전라남도 화순군 능주면 관영리 103",467904673426,"전라남도 화순군 능주면 죽수길",68,NA,"4679035026101040001025503","능주농협","전라남도 화순군 능주면 죽수길 68",519811,58153,"","1",NA,126.958835102522,34.9893075293564
21686211,"한길학원","","R","학문/교육","R01","학원-보습교습입시","R01A01","학원-입시","P85501","일반 교과 학원",46,"전라남도",46790,"화순군",4679025000,"화순읍",4679025028,"화순읍",4679025028206700000,1,"대지",670,NA,"전라남도 화순군 화순읍 일심리 670",467903291004,"전라남도 화순군 화순읍 광덕로",156,NA,"4679025028106700000045056","화순청전아파트","전라남도 화순군 화순읍 광덕로 156",519757,58126,"","1",NA,126.992628989887,35.0587493158767
24099250,"신세게홈패션","","D","소매","D07","가정/주방/인테리어","D07A14","지물판매","G47513","벽지 및 장판류 소매업",46,"전라남도",46790,"화순군",4679025000,"화순읍",4679025023,"화순읍",4679025023202310000,1,"대지",231,NA,"전라남도 화순군 화순읍 만연리 231",467903291004,"전라남도 화순군 화순읍 광덕로",170,NA,"4679025023102310000045057","화순부영아파트","전라남도 화순군 화순읍 광덕로 170",519752,58126,"","",NA,126.993060594661,35.0602041719877
12201848,"펄스온생명공학","화순지점","D","소매","D20","의약/의료품소매","D20B01","의약품소매","G47811","의약품 및 의료용품 소매업",46,"전라남도",46790,"화순군",4679025000,"화순읍",4679025030,"화순읍",4679025030203000000,1,"대지",300,NA,"전라남도 화순군 화순읍 광덕리 300",467903291004,"전라남도 화순군 화순읍 광덕로",157,NA,"4679025030103000000045020","화순부영2차아파트","전라남도 화순군 화순읍 광덕로 157",519753,58125,"","",NA,126.992209905835,35.0589531595231
27748374,"현대기획","","F","생활서비스","F12","광고/인쇄","F12A01","인쇄종합","C18119","기타 인쇄업",46,"전라남도",46790,"화순군",4679025000,"화순읍",4679025031,"화순읍",4679025031207090002,1,"대지",709,2,"전라남도 화순군 화순읍 삼천리 709-2",467904673245,"전라남도 화순군 화순읍 성내길",13,4,"4679025031107090002041741","","전라남도 화순군 화순읍 성내길 13-4",519807,58137,"","",NA,126.981406477807,35.0567265802423
26332487,"오리랑닭이랑","","Q","음식","Q05","닭/오리요리","Q05A09","오리고기전문","I56111","한식 음식점업",46,"전라남도",46790,"화순군",4679036000,"도곡면",4679036032,"도곡면",4679036032201890002,1,"대지",189,2,"전라남도 화순군 도곡면 원화리 189-2",467903291031,"전라남도 화순군 도곡면 지강로",392,NA,"4679036032101890002028535","","전라남도 화순군 도곡면 지강로 392",519832,58148,"","1",NA,126.909085637336,35.0288933288048
20167624,"미니스톱","화순도곡점","D","소매","D03","종합소매점","D03A01","편의점","G47122","체인화 편의점",46,"전라남도",46790,"화순군",4679036000,"도곡면",4679036032,"도곡면",4679036032206180000,1,"대지",618,NA,"전라남도 화순군 도곡면 원화리 618",467904673331,"전라남도 화순군 도곡면 온천1길",18,NA,"4679036032106180000030641","","전라남도 화순군 도곡면 온천1길 18",519832,58148,"","",NA,126.906272245039,35.0278494132966
21318594,"카프렌드오토샵","","F","생활서비스","F14","자동차/이륜차","F14A01","자동차정비/카센타","","",46,"전라남도",46790,"화순군",4679025000,"화순읍",4679025031,"화순읍",4679025031206580000,1,"대지",658,NA,"전라남도 화순군 화순읍 삼천리 658",467903291036,"전라남도 화순군 화순읍 칠충로",84,NA,"4679025031106580000041556","","전라남도 화순군 화순읍 칠충로 84",519807,58137,"","",NA,126.980010708845,35.0570123176921
21199944,"삼미씽크","","D","소매","D15","가구소매","D15A01","일반가구소매","G47520","가구 소매업",46,"전라남도",46790,"화순군",4679025000,"화순읍",4679025030,"화순읍",4679025030200060007,1,"대지",6,7,"전라남도 화순군 화순읍 광덕리 6-7",467903291025,"전라남도 화순군 화순읍 자치샘로",87,NA,"4679025030100060007044677","","전라남도 화순군 화순읍 자치샘로 87",519803,58124,"","",NA,126.989794598052,35.059239548957
24553392,"정우유통","","D","소매","D01","음/식료품소매","D01A01","식료품점","G47219","기타 식료품 소매업",46,"전라남도",46790,"화순군",4679025000,"화순읍",4679025021,"화순읍",4679025021200700005,1,"대지",70,5,"전라남도 화순군 화순읍 교리 70-5",467903291032,"전라남도 화순군 화순읍 진각로",181,18,"4679025021100780006046921","화순2차서라아파트","전라남도 화순군 화순읍 진각로 181-18",519804,58112,"","",NA,126.985548557278,35.0674970884597
23160576,"점프노리화순점","화순점","R","학문/교육","R08","유아교육","R08A04","실내놀이터-유아","Q87210","보육시설 운영업",46,"전라남도",46790,"화순군",4679025000,"화순읍",4679025023,"화순읍",4679025023202380007,1,"대지",238,7,"전라남도 화순군 화순읍 만연리 238-7",467903291050,"전라남도 화순군 화순읍 중앙로",93,17,"4679025023102380007047061","","전라남도 화순군 화순읍 중앙로 93-17",519806,58117,"","3",NA,126.991494048159,35.0618948249334
23121687,"제일미용실","","F","생활서비스","F01","이/미용/건강","F01A01","여성미용실","S96112","두발미용업",46,"전라남도",46790,"화순군",4679025000,"화순읍",4679025022,"화순읍",4679025022200690004,1,"대지",69,4,"전라남도 화순군 화순읍 향청리 69-4",467903291032,"전라남도 화순군 화순읍 진각로",109,1,"4679025022100690004042807","","전라남도 화순군 화순읍 진각로 109-1",519808,58119,"","1",NA,126.985649202459,35.0611339745276
23097193,"엘도라도리조트","","O","숙박","O02","모텔/여관/여인숙","O02A01","모텔/여관/여인숙","I55112","여관업",46,"전라남도",46790,"화순군",4679036000,"도곡면",4679036028,"도곡면",4679036028207480000,1,"대지",748,NA,"전라남도 화순군 도곡면 천암리 748",467904673331,"전라남도 화순군 도곡면 온천1길",114,NA,"4679036028107480000000001","","전라남도 화순군 도곡면 온천1길 114",519832,58148,"","",NA,126.901375726614,35.0350795322365
26196282,"본가모밀25시","","Q","음식","Q04","분식","Q04A01","라면김밥분식","I56194","분식 및 김밥 전문점",46,"전라남도",46790,"화순군",4679025000,"화순읍",4679025028,"화순읍",4679025028208630010,1,"대지",863,10,"전라남도 화순군 화순읍 일심리 863-10",467903291050,"전라남도 화순군 화순읍 중앙로",121,NA,"4679025028108630010000002","","전라남도 화순군 화순읍 중앙로 121",519809,58115,"","1",NA,126.994821892212,35.060507231634
23431935,"알피에","","Q","음식","Q12","커피점/카페","Q12A01","커피전문점/카페/다방","I56220","비알콜 음료점업",46,"전라남도",46790,"화순군",4679025000,"화순읍",4679025026,"화순읍",4679025026200120000,1,"대지",12,NA,"전라남도 화순군 화순읍 동구리 12",467903291032,"전라남도 화순군 화순읍 진각로",251,NA,"4679025026100120000000001","","전라남도 화순군 화순읍 진각로 251",519804,58105,"","",NA,126.988445478885,35.073515656468
12111594,"호야네착한정육&마트","","D","소매","D01","음/식료품소매","D01A03","정육점","G47212","육류 소매업",46,"전라남도",46790,"화순군",4679025000,"화순읍",4679025033,"화순읍",4679025033209350000,1,"대지",935,NA,"전라남도 화순군 화순읍 대리 935",467904673084,"전라남도 화순군 화순읍 대리길",41,NA,"4679025033100820009000001","화순광신프로그레스","전라남도 화순군 화순읍 대리길 41",519951,58121,"","",NA,126.977098683567,35.0593314639084
24390828,"화순안전유니폼","","D","소매","D05","의복의류","D05A19","특수복판매","G47416","셔츠 및 기타 의복 소매업",46,"전라남도",46790,"화순군",4679025000,"화순읍",4679025024,"화순읍",4679025024102630003,1,"대지",263,3,"전라남도 화순군 화순읍 신기리 263-3",467904673255,"전라남도 화순군 화순읍 소천길",22,NA,"4679025024102630003044613","","전라남도 화순군 화순읍 소천길 22",519950,58113,"","1",NA,126.989643799978,35.0652507032804
26442731,"타이월드","","Q","음식","Q09","유흥주점","Q09A01","호프/맥주","I56219","기타 주점업",46,"전라남도",46790,"화순군",4679025000,"화순읍",4679025022,"화순읍",4679025022201520003,1,"대지",152,3,"전라남도 화순군 화순읍 향청리 152-3",467903291036,"전라남도 화순군 화순읍 칠충로",138,NA,"4679025022101520003042310","","전라남도 화순군 화순읍 칠충로 138",519808,58119,"","2",NA,126.983778758095,35.0607938110885
12111592,"투마리치킨","","Q","음식","Q05","닭/오리요리","Q05A08","후라이드/양념치킨","I56193","치킨 전문점",46,"전라남도",46790,"화순군",4679025000,"화순읍",4679025023,"화순읍",4679025023202390005,1,"대지",239,5,"전라남도 화순군 화순읍 만연리 239-5",467903291008,"전라남도 화순군 화순읍 만연로",66,10,"4679025023102390005044898","","전라남도 화순군 화순읍 만연로 66-10",519806,58117,"","1",NA,126.991193102048,35.0614055604573
24748279,"뽕건강테마관","","D","소매","D01","음/식료품소매","D01A13","청과물소매","G47214","과실 및 채소 소매업",46,"전라남도",46790,"화순군",4679038000,"이서면",4679038030,"이서면",4679038030206100000,1,"대지",610,NA,"전라남도 화순군 이서면 영평리 610",467903291006,"전라남도 화순군 이서면 규봉로",887,72,"4679038030106100000016334","오케이사슴목장","전라남도 화순군 이서면 규봉로 887-72",519932,58103,"","",NA,127.035997399492,35.1099954319696
